{
  "type": "FeaturedCollection",
  "features": [
    {
      "type": "Feature",
      "geometry": {
        "type": "Point",
        "coordinates": [
          -120.608101,
          37.347801
        ]
      },
      "properties": {
        "Name": "Michael Smith",
        "Height": 36,
        "marker-color": "#9F8170"
      }
    },
    {
      "type": "Feature",
      "geometry": {
        "type": "Point",
        "coordinates": [
          -95.363098,
          29.7631
        ]
      },
      "properties": {
        "Name": "Jayson Carter",
        "Height": 57,
        "marker-color": "#9F8170"
      }
    },
    {
      "type": "Feature",
      "geometry": {
        "type": "Point",
        "coordinates": [
          -80.2136,
          26.139999
        ]
      },
      "properties": {
        "Name": "Dareyon Chance",
        "Height": 60,
        "marker-color": "#9F8170"
      }
    },
    {
      "type": "Feature",
      "geometry": {
        "type": "Point",
        "coordinates": [
          -88.043098,
          30.694201
        ]
      },
      "properties": {
        "Name": "Reggie Jackson",
        "Height": 61,
        "marker-color": "#9F8170"
      }
    },
    {
      "type": "Feature",
      "geometry": {
        "type": "Point",
        "coordinates": [
          -83.900803,
          33.838902
        ]
      },
      "properties": {
        "Name": "Ean Pemberton",
        "Height": 63,
        "marker-color": "#9F8170"
      }
    },
    {
      "type": "Feature",
      "geometry": {
        "type": "Point",
        "coordinates": [
          -80.240303,
          40.6367
        ]
      },
      "properties": {
        "Name": "April Goss",
        "Height": 64,
        "marker-color": "#9F8170"
      }
    },
    {
      "type": "Feature",
      "geometry": {
        "type": "Point",
        "coordinates": [
          -80.013298,
          33.195801
        ]
      },
      "properties": {
        "Name": "Anthony Simmons",
        "Height": 64,
        "marker-color": "#9F8170"
      }
    },
    {
      "type": "Feature",
      "geometry": {
        "type": "Point",
        "coordinates": [
          -80.193901,
          25.773899
        ]
      },
      "properties": {
        "Name": "Robert Rose",
        "Height": 64,
        "marker-color": "#9F8170"
      }
    },
    {
      "type": "Feature",
      "geometry": {
        "type": "Point",
        "coordinates": [
          -81.099998,
          32.083302
        ]
      },
      "properties": {
        "Name": "Antonio Proctor",
        "Height": 64,
        "marker-color": "#9F8170"
      }
    },
    {
      "type": "Feature",
      "geometry": {
        "type": "Point",
        "coordinates": [
          -74.044197,
          41.113098
        ]
      },
      "properties": {
        "Name": "Presley Beauvais",
        "Height": 64,
        "marker-color": "#9F8170"
      }
    },
    {
      "type": "Feature",
      "geometry": {
        "type": "Point",
        "coordinates": [
          -86.784401,
          36.165798
        ]
      },
      "properties": {
        "Name": "Ryan Berry",
        "Height": 64,
        "marker-color": "#9F8170"
      }
    },
    {
      "type": "Feature",
      "geometry": {
        "type": "Point",
        "coordinates": [
          -80.252998,
          25.904551
        ]
      },
      "properties": {
        "Name": "Derrick Hopkins",
        "Height": 65,
        "marker-color": "#9F8170"
      }
    },
    {
      "type": "Feature",
      "geometry": {
        "type": "Point",
        "coordinates": [
          -84.170303,
          33.808102
        ]
      },
      "properties": {
        "Name": "Dre Nelson",
        "Height": 65,
        "marker-color": "#9F8170"
      }
    },
    {
      "type": "Feature",
      "geometry": {
        "type": "Point",
        "coordinates": [
          -86.608902,
          33.619701
        ]
      },
      "properties": {
        "Name": "Jake Wilks",
        "Height": 65,
        "marker-color": "#9F8170"
      }
    },
    {
      "type": "Feature",
      "geometry": {
        "type": "Point",
        "coordinates": [
          -117.8992,
          33.916698
        ]
      },
      "properties": {
        "Name": "Michael Frisina",
        "Height": 65,
        "marker-color": "#9F8170"
      }
    },
    {
      "type": "Feature",
      "geometry": {
        "type": "Point",
        "coordinates": [
          -86.446701,
          36.388302
        ]
      },
      "properties": {
        "Name": "Corey Alexander",
        "Height": 65,
        "marker-color": "#9F8170"
      }
    },
    {
      "type": "Feature",
      "geometry": {
        "type": "Point",
        "coordinates": [
          -96.625,
          32.3292
        ]
      },
      "properties": {
        "Name": "Fred Carroll",
        "Height": 65,
        "marker-color": "#9F8170"
      }
    },
    {
      "type": "Feature",
      "geometry": {
        "type": "Point",
        "coordinates": [
          -85.759399,
          38.2542
        ]
      },
      "properties": {
        "Name": "Tim Phillips",
        "Height": 65,
        "marker-color": "#9F8170"
      }
    },
    {
      "type": "Feature",
      "geometry": {
        "type": "Point",
        "coordinates": [
          -82.9039,
          32.540298
        ]
      },
      "properties": {
        "Name": "Brian Wilcher",
        "Height": 65,
        "marker-color": "#9F8170"
      }
    },
    {
      "type": "Feature",
      "geometry": {
        "type": "Point",
        "coordinates": [
          -84.217201,
          33.854401
        ]
      },
      "properties": {
        "Name": "Devin Scott",
        "Height": 65,
        "marker-color": "#9F8170"
      }
    },
    {
      "type": "Feature",
      "geometry": {
        "type": "Point",
        "coordinates": [
          -97.742798,
          30.266899
        ]
      },
      "properties": {
        "Name": "VanLawrance Franks",
        "Height": 65,
        "marker-color": "#9F8170"
      }
    },
    {
      "type": "Feature",
      "geometry": {
        "type": "Point",
        "coordinates": [
          -96.800003,
          32.783298
        ]
      },
      "properties": {
        "Name": "Billy Morgan",
        "Height": 65,
        "marker-color": "#9F8170"
      }
    },
    {
      "type": "Feature",
      "geometry": {
        "type": "Point",
        "coordinates": [
          -83.900803,
          33.838902
        ]
      },
      "properties": {
        "Name": "George Johnson",
        "Height": 65,
        "marker-color": "#9F8170"
      }
    },
    {
      "type": "Feature",
      "geometry": {
        "type": "Point",
        "coordinates": [
          -117.395302,
          33.9533
        ]
      },
      "properties": {
        "Name": "Josh Ivery",
        "Height": 65,
        "marker-color": "#9F8170"
      }
    },
    {
      "type": "Feature",
      "geometry": {
        "type": "Point",
        "coordinates": [
          -75.320602,
          39.930599
        ]
      },
      "properties": {
        "Name": "Steve Jones",
        "Height": 65,
        "marker-color": "#9F8170"
      }
    },
    {
      "type": "Feature",
      "geometry": {
        "type": "Point",
        "coordinates": [
          -73.634697,
          40.7267
        ]
      },
      "properties": {
        "Name": "Nick DiFilippi",
        "Height": 65,
        "marker-color": "#9F8170"
      }
    },
    {
      "type": "Feature",
      "geometry": {
        "type": "Point",
        "coordinates": [
          -86.158096,
          39.768299
        ]
      },
      "properties": {
        "Name": "Dwayne Donigan",
        "Height": 65,
        "marker-color": "#9F8170"
      }
    },
    {
      "type": "Feature",
      "geometry": {
        "type": "Point",
        "coordinates": [
          -74.245003,
          40.621899
        ]
      },
      "properties": {
        "Name": "Kevin Rodriguez",
        "Height": 66,
        "marker-color": "#9F8170"
      }
    },
    {
      "type": "Feature",
      "geometry": {
        "type": "Point",
        "coordinates": [
          -96.5989,
          32.7667
        ]
      },
      "properties": {
        "Name": "Jakeem Grant",
        "Height": 66,
        "marker-color": "#9F8170"
      }
    },
    {
      "type": "Feature",
      "geometry": {
        "type": "Point",
        "coordinates": [
          -80.193901,
          25.773899
        ]
      },
      "properties": {
        "Name": "Emilio Nadelman",
        "Height": 66,
        "marker-color": "#9F8170"
      }
    },
    {
      "type": "Feature",
      "geometry": {
        "type": "Point",
        "coordinates": [
          -95.824203,
          29.785601
        ]
      },
      "properties": {
        "Name": "Leekus Green",
        "Height": 66,
        "marker-color": "#9F8170"
      }
    },
    {
      "type": "Feature",
      "geometry": {
        "type": "Point",
        "coordinates": [
          -73.245796,
          40.724998
        ]
      },
      "properties": {
        "Name": "Karl Allison",
        "Height": 66,
        "marker-color": "#9F8170"
      }
    },
    {
      "type": "Feature",
      "geometry": {
        "type": "Point",
        "coordinates": [
          -96.889999,
          32.953601
        ]
      },
      "properties": {
        "Name": "Darius Staten",
        "Height": 66,
        "marker-color": "#9F8170"
      }
    },
    {
      "type": "Feature",
      "geometry": {
        "type": "Point",
        "coordinates": [
          -99.141968,
          39.527596
        ]
      },
      "properties": {
        "Name": "Matt Amicone",
        "Height": 66,
        "marker-color": "#9F8170"
      }
    },
    {
      "type": "Feature",
      "geometry": {
        "type": "Point",
        "coordinates": [
          -79.7883,
          40.421101
        ]
      },
      "properties": {
        "Name": "Brian Williams",
        "Height": 66,
        "marker-color": "#9F8170"
      }
    },
    {
      "type": "Feature",
      "geometry": {
        "type": "Point",
        "coordinates": [
          -81.566101,
          41.415298
        ]
      },
      "properties": {
        "Name": "Armand Dehaney",
        "Height": 66,
        "marker-color": "#9F8170"
      }
    },
    {
      "type": "Feature",
      "geometry": {
        "type": "Point",
        "coordinates": [
          -82.458603,
          27.947201
        ]
      },
      "properties": {
        "Name": "Deuce Gruden",
        "Height": 66,
        "marker-color": "#9F8170"
      }
    },
    {
      "type": "Feature",
      "geometry": {
        "type": "Point",
        "coordinates": [
          -86.802498,
          33.520598
        ]
      },
      "properties": {
        "Name": "Bradley Bostick",
        "Height": 66,
        "marker-color": "#9F8170"
      }
    },
    {
      "type": "Feature",
      "geometry": {
        "type": "Point",
        "coordinates": [
          -76.9394,
          38.624401
        ]
      },
      "properties": {
        "Name": "Emmanuel Onakoya",
        "Height": 66,
        "marker-color": "#9F8170"
      }
    },
    {
      "type": "Feature",
      "geometry": {
        "type": "Point",
        "coordinates": [
          -118.135803,
          34.698101
        ]
      },
      "properties": {
        "Name": "Roosevelt Davis",
        "Height": 66,
        "marker-color": "#9F8170"
      }
    },
    {
      "type": "Feature",
      "geometry": {
        "type": "Point",
        "coordinates": [
          -95.114403,
          29.775801
        ]
      },
      "properties": {
        "Name": "Justin Hicks",
        "Height": 66,
        "marker-color": "#9F8170"
      }
    },
    {
      "type": "Feature",
      "geometry": {
        "type": "Point",
        "coordinates": [
          -82.554199,
          35.6008
        ]
      },
      "properties": {
        "Name": "Martese Jackson",
        "Height": 66,
        "marker-color": "#9F8170"
      }
    },
    {
      "type": "Feature",
      "geometry": {
        "type": "Point",
        "coordinates": [
          -96.087502,
          30.3878
        ]
      },
      "properties": {
        "Name": "Gaston Lamascus",
        "Height": 66,
        "marker-color": "#9F8170"
      }
    },
    {
      "type": "Feature",
      "geometry": {
        "type": "Point",
        "coordinates": [
          -90.551399,
          33.7258
        ]
      },
      "properties": {
        "Name": "Jo'Nathan Davis",
        "Height": 66,
        "marker-color": "#9F8170"
      }
    },
    {
      "type": "Feature",
      "geometry": {
        "type": "Point",
        "coordinates": [
          -97.320602,
          32.725299
        ]
      },
      "properties": {
        "Name": "Brian Vaughn",
        "Height": 66,
        "marker-color": "#9F8170"
      }
    },
    {
      "type": "Feature",
      "geometry": {
        "type": "Point",
        "coordinates": [
          -73.408302,
          41.1175
        ]
      },
      "properties": {
        "Name": "Marcus Dormevil",
        "Height": 66,
        "marker-color": "#9F8170"
      }
    },
    {
      "type": "Feature",
      "geometry": {
        "type": "Point",
        "coordinates": [
          -74.033096,
          40.9911
        ]
      },
      "properties": {
        "Name": "Chris Burrell",
        "Height": 66,
        "marker-color": "#9F8170"
      }
    },
    {
      "type": "Feature",
      "geometry": {
        "type": "Point",
        "coordinates": [
          -86.5186,
          35.9828
        ]
      },
      "properties": {
        "Name": "Dakota Brown",
        "Height": 66,
        "marker-color": "#9F8170"
      }
    },
    {
      "type": "Feature",
      "geometry": {
        "type": "Point",
        "coordinates": [
          -85.660301,
          30.1586
        ]
      },
      "properties": {
        "Name": "Jeremy Hester",
        "Height": 66,
        "marker-color": "#9F8170"
      }
    },
    {
      "type": "Feature",
      "geometry": {
        "type": "Point",
        "coordinates": [
          -95.416901,
          30.0797
        ]
      },
      "properties": {
        "Name": "Shane Williams-Rhodes",
        "Height": 66,
        "marker-color": "#9F8170"
      }
    },
    {
      "type": "Feature",
      "geometry": {
        "type": "Point",
        "coordinates": [
          -92.419197,
          30.6336
        ]
      },
      "properties": {
        "Name": "Robert Walker",
        "Height": 66,
        "marker-color": "#9F8170"
      }
    },
    {
      "type": "Feature",
      "geometry": {
        "type": "Point",
        "coordinates": [
          -79.792198,
          36.072498
        ]
      },
      "properties": {
        "Name": "Thuc Phan",
        "Height": 66,
        "marker-color": "#9F8170"
      }
    },
    {
      "type": "Feature",
      "geometry": {
        "type": "Point",
        "coordinates": [
          -76.641403,
          39.499699
        ]
      },
      "properties": {
        "Name": "Peter Hajimihalis",
        "Height": 66,
        "marker-color": "#9F8170"
      }
    },
    {
      "type": "Feature",
      "geometry": {
        "type": "Point",
        "coordinates": [
          -82.328102,
          28.239401
        ]
      },
      "properties": {
        "Name": "Jordan Crockett",
        "Height": 66,
        "marker-color": "#9F8170"
      }
    },
    {
      "type": "Feature",
      "geometry": {
        "type": "Point",
        "coordinates": [
          -81.706703,
          30.1658
        ]
      },
      "properties": {
        "Name": "Albrey Felder",
        "Height": 66,
        "marker-color": "#9F8170"
      }
    },
    {
      "type": "Feature",
      "geometry": {
        "type": "Point",
        "coordinates": [
          -106.777802,
          32.312199
        ]
      },
      "properties": {
        "Name": "Jason Sandoval",
        "Height": 66,
        "marker-color": "#9F8170"
      }
    },
    {
      "type": "Feature",
      "geometry": {
        "type": "Point",
        "coordinates": [
          -115.136398,
          36.174999
        ]
      },
      "properties": {
        "Name": "Marquon Webster",
        "Height": 66,
        "marker-color": "#9F8170"
      }
    },
    {
      "type": "Feature",
      "geometry": {
        "type": "Point",
        "coordinates": [
          -80.230797,
          26.708099
        ]
      },
      "properties": {
        "Name": "Trey Pendergrass",
        "Height": 66,
        "marker-color": "#9F8170"
      }
    },
    {
      "type": "Feature",
      "geometry": {
        "type": "Point",
        "coordinates": [
          -81.566101,
          41.415298
        ]
      },
      "properties": {
        "Name": "Andre Stubbs",
        "Height": 66,
        "marker-color": "#9F8170"
      }
    },
    {
      "type": "Feature",
      "geometry": {
        "type": "Point",
        "coordinates": [
          -80.665604,
          26.8197
        ]
      },
      "properties": {
        "Name": "Vincent Smith",
        "Height": 66,
        "marker-color": "#9F8170"
      }
    },
    {
      "type": "Feature",
      "geometry": {
        "type": "Point",
        "coordinates": [
          -122.038902,
          38.249401
        ]
      },
      "properties": {
        "Name": "Jordan Morrow",
        "Height": 66,
        "marker-color": "#9F8170"
      }
    },
    {
      "type": "Feature",
      "geometry": {
        "type": "Point",
        "coordinates": [
          -82.113098,
          28.018299
        ]
      },
      "properties": {
        "Name": "Daz'mond Patterson",
        "Height": 66,
        "marker-color": "#9F8170"
      }
    },
    {
      "type": "Feature",
      "geometry": {
        "type": "Point",
        "coordinates": [
          -85.080002,
          43.519699
        ]
      },
      "properties": {
        "Name": "Jake Hutson",
        "Height": 66,
        "marker-color": "#9F8170"
      }
    },
    {
      "type": "Feature",
      "geometry": {
        "type": "Point",
        "coordinates": [
          -90.0625,
          29.957079
        ]
      },
      "properties": {
        "Name": "Dalton Hilliard Jr.",
        "Height": 66,
        "marker-color": "#9F8170"
      }
    },
    {
      "type": "Feature",
      "geometry": {
        "type": "Point",
        "coordinates": [
          -79.931099,
          32.776401
        ]
      },
      "properties": {
        "Name": "Adrian Sullivan",
        "Height": 66,
        "marker-color": "#9F8170"
      }
    },
    {
      "type": "Feature",
      "geometry": {
        "type": "Point",
        "coordinates": [
          -71.316704,
          42.633301
        ]
      },
      "properties": {
        "Name": "Jet Kollie",
        "Height": 66,
        "marker-color": "#9F8170"
      }
    },
    {
      "type": "Feature",
      "geometry": {
        "type": "Point",
        "coordinates": [
          -86.861702,
          33.2033
        ]
      },
      "properties": {
        "Name": "Jeremy Jones",
        "Height": 66,
        "marker-color": "#9F8170"
      }
    },
    {
      "type": "Feature",
      "geometry": {
        "type": "Point",
        "coordinates": [
          -76.345596,
          37.029701
        ]
      },
      "properties": {
        "Name": "Kyle Lawrence",
        "Height": 66,
        "marker-color": "#9F8170"
      }
    },
    {
      "type": "Feature",
      "geometry": {
        "type": "Point",
        "coordinates": [
          -117.434196,
          34.092201
        ]
      },
      "properties": {
        "Name": "Eugene Johnson",
        "Height": 66,
        "marker-color": "#9F8170"
      }
    },
    {
      "type": "Feature",
      "geometry": {
        "type": "Point",
        "coordinates": [
          -121.850601,
          36.611099
        ]
      },
      "properties": {
        "Name": "Poppy Livers",
        "Height": 66,
        "marker-color": "#9F8170"
      }
    },
    {
      "type": "Feature",
      "geometry": {
        "type": "Point",
        "coordinates": [
          -117.229721,
          33.9375
        ]
      },
      "properties": {
        "Name": "Jonathan Norton",
        "Height": 66,
        "marker-color": "#9F8170"
      }
    },
    {
      "type": "Feature",
      "geometry": {
        "type": "Point",
        "coordinates": [
          -82.458603,
          27.947201
        ]
      },
      "properties": {
        "Name": "Robert Lohnes",
        "Height": 66,
        "marker-color": "#9F8170"
      }
    },
    {
      "type": "Feature",
      "geometry": {
        "type": "Point",
        "coordinates": [
          -117.147499,
          33.493599
        ]
      },
      "properties": {
        "Name": "Griffin Fauntleroy",
        "Height": 66,
        "marker-color": "#9F8170"
      }
    },
    {
      "type": "Feature",
      "geometry": {
        "type": "Point",
        "coordinates": [
          -106.650597,
          35.0844
        ]
      },
      "properties": {
        "Name": "JP Bolwahnn",
        "Height": 66,
        "marker-color": "#9F8170"
      }
    },
    {
      "type": "Feature",
      "geometry": {
        "type": "Point",
        "coordinates": [
          -83.045799,
          42.331402
        ]
      },
      "properties": {
        "Name": "Kenyarda Bates",
        "Height": 66,
        "marker-color": "#9F8170"
      }
    },
    {
      "type": "Feature",
      "geometry": {
        "type": "Point",
        "coordinates": [
          -112.444702,
          42.871399
        ]
      },
      "properties": {
        "Name": "Erich Pew",
        "Height": 66,
        "marker-color": "#9F8170"
      }
    },
    {
      "type": "Feature",
      "geometry": {
        "type": "Point",
        "coordinates": [
          -90.0625,
          29.957079
        ]
      },
      "properties": {
        "Name": "Anthony Cain",
        "Height": 66,
        "marker-color": "#9F8170"
      }
    },
    {
      "type": "Feature",
      "geometry": {
        "type": "Point",
        "coordinates": [
          -97.315002,
          30.1103
        ]
      },
      "properties": {
        "Name": "Josiah Monroe",
        "Height": 66,
        "marker-color": "#9F8170"
      }
    },
    {
      "type": "Feature",
      "geometry": {
        "type": "Point",
        "coordinates": [
          -76.345596,
          37.029701
        ]
      },
      "properties": {
        "Name": "Chris Caver",
        "Height": 66,
        "marker-color": "#9F8170"
      }
    },
    {
      "type": "Feature",
      "geometry": {
        "type": "Point",
        "coordinates": [
          -84.3881,
          33.748901
        ]
      },
      "properties": {
        "Name": "Sam McNearney",
        "Height": 66,
        "marker-color": "#9F8170"
      }
    },
    {
      "type": "Feature",
      "geometry": {
        "type": "Point",
        "coordinates": [
          -79.996101,
          40.440601
        ]
      },
      "properties": {
        "Name": "Jake Szolis",
        "Height": 66,
        "marker-color": "#9F8170"
      }
    },
    {
      "type": "Feature",
      "geometry": {
        "type": "Point",
        "coordinates": [
          -80.581902,
          35.569199
        ]
      },
      "properties": {
        "Name": "Shaun Warren",
        "Height": 66,
        "marker-color": "#9F8170"
      }
    },
    {
      "type": "Feature",
      "geometry": {
        "type": "Point",
        "coordinates": [
          -84.071404,
          34.051399
        ]
      },
      "properties": {
        "Name": "Ahmaad Harris",
        "Height": 66,
        "marker-color": "#9F8170"
      }
    },
    {
      "type": "Feature",
      "geometry": {
        "type": "Point",
        "coordinates": [
          -90.153061,
          30.846939
        ]
      },
      "properties": {
        "Name": "Reggie Wilson",
        "Height": 66,
        "marker-color": "#9F8170"
      }
    },
    {
      "type": "Feature",
      "geometry": {
        "type": "Point",
        "coordinates": [
          -91.154404,
          30.4506
        ]
      },
      "properties": {
        "Name": "Nico Talbert",
        "Height": 66,
        "marker-color": "#9F8170"
      }
    },
    {
      "type": "Feature",
      "geometry": {
        "type": "Point",
        "coordinates": [
          -98.493301,
          29.423901
        ]
      },
      "properties": {
        "Name": "Brandon Armstrong",
        "Height": 66,
        "marker-color": "#9F8170"
      }
    },
    {
      "type": "Feature",
      "geometry": {
        "type": "Point",
        "coordinates": [
          -158.006439,
          21.383556
        ]
      },
      "properties": {
        "Name": "Irvin Nguyen",
        "Height": 66,
        "marker-color": "#9F8170"
      }
    },
    {
      "type": "Feature",
      "geometry": {
        "type": "Point",
        "coordinates": [
          -73.051903,
          41.558102
        ]
      },
      "properties": {
        "Name": "Larry Hoffler",
        "Height": 66,
        "marker-color": "#9F8170"
      }
    },
    {
      "type": "Feature",
      "geometry": {
        "type": "Point",
        "coordinates": [
          -119.812798,
          39.529701
        ]
      },
      "properties": {
        "Name": "Anthony Martinez",
        "Height": 66,
        "marker-color": "#9F8170"
      }
    },
    {
      "type": "Feature",
      "geometry": {
        "type": "Point",
        "coordinates": [
          -82.118103,
          32.0867
        ]
      },
      "properties": {
        "Name": "Brandon Harton",
        "Height": 66,
        "marker-color": "#9F8170"
      }
    },
    {
      "type": "Feature",
      "geometry": {
        "type": "Point",
        "coordinates": [
          -71.201401,
          42.7883
        ]
      },
      "properties": {
        "Name": "Max Jacques",
        "Height": 66,
        "marker-color": "#9F8170"
      }
    },
    {
      "type": "Feature",
      "geometry": {
        "type": "Point",
        "coordinates": [
          -95.677803,
          39.048302
        ]
      },
      "properties": {
        "Name": "Cody Harrison",
        "Height": 66,
        "marker-color": "#9F8170"
      }
    },
    {
      "type": "Feature",
      "geometry": {
        "type": "Point",
        "coordinates": [
          -93.139999,
          32.961899
        ]
      },
      "properties": {
        "Name": "Ronnie Fields",
        "Height": 66,
        "marker-color": "#9F8170"
      }
    },
    {
      "type": "Feature",
      "geometry": {
        "type": "Point",
        "coordinates": [
          -97.337196,
          37.6922
        ]
      },
      "properties": {
        "Name": "DeMarcus Robinson",
        "Height": 66,
        "marker-color": "#9F8170"
      }
    },
    {
      "type": "Feature",
      "geometry": {
        "type": "Point",
        "coordinates": [
          -96.800003,
          32.783298
        ]
      },
      "properties": {
        "Name": "Terrence Tusan",
        "Height": 66,
        "marker-color": "#9F8170"
      }
    },
    {
      "type": "Feature",
      "geometry": {
        "type": "Point",
        "coordinates": [
          -79.996101,
          40.440601
        ]
      },
      "properties": {
        "Name": "William Quarles",
        "Height": 66,
        "marker-color": "#9F8170"
      }
    },
    {
      "type": "Feature",
      "geometry": {
        "type": "Point",
        "coordinates": [
          -98.069702,
          40.020802
        ]
      },
      "properties": {
        "Name": "Ty Betka",
        "Height": 66,
        "marker-color": "#9F8170"
      }
    },
    {
      "type": "Feature",
      "geometry": {
        "type": "Point",
        "coordinates": [
          -81.678299,
          29.991699
        ]
      },
      "properties": {
        "Name": "Shane Coleman",
        "Height": 67,
        "marker-color": "#9F8170"
      }
    },
    {
      "type": "Feature",
      "geometry": {
        "type": "Point",
        "coordinates": [
          -80.073601,
          34.373901
        ]
      },
      "properties": {
        "Name": "Damian Dixon",
        "Height": 67,
        "marker-color": "#9F8170"
      }
    },
    {
      "type": "Feature",
      "geometry": {
        "type": "Point",
        "coordinates": [
          -86.843597,
          34.174702
        ]
      },
      "properties": {
        "Name": "T.J. Bryant",
        "Height": 67,
        "marker-color": "#9F8170"
      }
    },
    {
      "type": "Feature",
      "geometry": {
        "type": "Point",
        "coordinates": [
          -122.199402,
          47.6106
        ]
      },
      "properties": {
        "Name": "Cam Warren",
        "Height": 67,
        "marker-color": "#9F8170"
      }
    },
    {
      "type": "Feature",
      "geometry": {
        "type": "Point",
        "coordinates": [
          -74.426399,
          40.8578
        ]
      },
      "properties": {
        "Name": "Abe Sanchez",
        "Height": 67,
        "marker-color": "#9F8170"
      }
    },
    {
      "type": "Feature",
      "geometry": {
        "type": "Point",
        "coordinates": [
          -118.2192,
          33.895802
        ]
      },
      "properties": {
        "Name": "Theron West",
        "Height": 67,
        "marker-color": "#9F8170"
      }
    },
    {
      "type": "Feature",
      "geometry": {
        "type": "Point",
        "coordinates": [
          -81.932198,
          34.949402
        ]
      },
      "properties": {
        "Name": "Ray Smith",
        "Height": 67,
        "marker-color": "#9F8170"
      }
    },
    {
      "type": "Feature",
      "geometry": {
        "type": "Point",
        "coordinates": [
          -73.837502,
          40.912498
        ]
      },
      "properties": {
        "Name": "Sidney Weston",
        "Height": 67,
        "marker-color": "#9F8170"
      }
    },
    {
      "type": "Feature",
      "geometry": {
        "type": "Point",
        "coordinates": [
          -112.444702,
          42.871399
        ]
      },
      "properties": {
        "Name": "Griff McNabb",
        "Height": 67,
        "marker-color": "#9F8170"
      }
    },
    {
      "type": "Feature",
      "geometry": {
        "type": "Point",
        "coordinates": [
          -95.363098,
          29.7631
        ]
      },
      "properties": {
        "Name": "Keylon LaSalle",
        "Height": 67,
        "marker-color": "#9F8170"
      }
    },
    {
      "type": "Feature",
      "geometry": {
        "type": "Point",
        "coordinates": [
          -90.319702,
          33.494999
        ]
      },
      "properties": {
        "Name": "DeBrandon Sanders",
        "Height": 67,
        "marker-color": "#9F8170"
      }
    },
    {
      "type": "Feature",
      "geometry": {
        "type": "Point",
        "coordinates": [
          -121.804703,
          38.005001
        ]
      },
      "properties": {
        "Name": "Terron Ward",
        "Height": 67,
        "marker-color": "#9F8170"
      }
    },
    {
      "type": "Feature",
      "geometry": {
        "type": "Point",
        "coordinates": [
          -80.148598,
          25.980801
        ]
      },
      "properties": {
        "Name": "Jared Sanders",
        "Height": 67,
        "marker-color": "#9F8170"
      }
    },
    {
      "type": "Feature",
      "geometry": {
        "type": "Point",
        "coordinates": [
          -95.9375,
          41.258598
        ]
      },
      "properties": {
        "Name": "Jordan Nelson",
        "Height": 67,
        "marker-color": "#9F8170"
      }
    },
    {
      "type": "Feature",
      "geometry": {
        "type": "Point",
        "coordinates": [
          -86.300003,
          32.366698
        ]
      },
      "properties": {
        "Name": "Adam Johnson",
        "Height": 67,
        "marker-color": "#9F8170"
      }
    },
    {
      "type": "Feature",
      "geometry": {
        "type": "Point",
        "coordinates": [
          -119.789703,
          36.650299
        ]
      },
      "properties": {
        "Name": "Bruce Jones",
        "Height": 67,
        "marker-color": "#9F8170"
      }
    },
    {
      "type": "Feature",
      "geometry": {
        "type": "Point",
        "coordinates": [
          -111.890297,
          40.760799
        ]
      },
      "properties": {
        "Name": "Lavell Ika",
        "Height": 67,
        "marker-color": "#9F8170"
      }
    },
    {
      "type": "Feature",
      "geometry": {
        "type": "Point",
        "coordinates": [
          -86.300003,
          32.366698
        ]
      },
      "properties": {
        "Name": "Acorye White",
        "Height": 67,
        "marker-color": "#9F8170"
      }
    },
    {
      "type": "Feature",
      "geometry": {
        "type": "Point",
        "coordinates": [
          -93.092201,
          37.643902
        ]
      },
      "properties": {
        "Name": "Duane Atteberry",
        "Height": 67,
        "marker-color": "#9F8170"
      }
    },
    {
      "type": "Feature",
      "geometry": {
        "type": "Point",
        "coordinates": [
          -76.798599,
          39.2672
        ]
      },
      "properties": {
        "Name": "Jameson Zacharias",
        "Height": 67,
        "marker-color": "#9F8170"
      }
    },
    {
      "type": "Feature",
      "geometry": {
        "type": "Point",
        "coordinates": [
          -86.482201,
          30.516701
        ]
      },
      "properties": {
        "Name": "Roy Finch",
        "Height": 67,
        "marker-color": "#9F8170"
      }
    },
    {
      "type": "Feature",
      "geometry": {
        "type": "Point",
        "coordinates": [
          -81.035004,
          34.000599
        ]
      },
      "properties": {
        "Name": "Paul Nelson",
        "Height": 67,
        "marker-color": "#9F8170"
      }
    },
    {
      "type": "Feature",
      "geometry": {
        "type": "Point",
        "coordinates": [
          -118.135803,
          34.698101
        ]
      },
      "properties": {
        "Name": "Jerry Kelly",
        "Height": 67,
        "marker-color": "#9F8170"
      }
    },
    {
      "type": "Feature",
      "geometry": {
        "type": "Point",
        "coordinates": [
          -122.128601,
          37.834999
        ]
      },
      "properties": {
        "Name": "Marco Tavecchio",
        "Height": 67,
        "marker-color": "#9F8170"
      }
    },
    {
      "type": "Feature",
      "geometry": {
        "type": "Point",
        "coordinates": [
          -90.048897,
          35.149399
        ]
      },
      "properties": {
        "Name": "Jesurun Kelly",
        "Height": 67,
        "marker-color": "#9F8170"
      }
    },
    {
      "type": "Feature",
      "geometry": {
        "type": "Point",
        "coordinates": [
          -79.395302,
          36.5858
        ]
      },
      "properties": {
        "Name": "Travis Tarpley",
        "Height": 67,
        "marker-color": "#9F8170"
      }
    },
    {
      "type": "Feature",
      "geometry": {
        "type": "Point",
        "coordinates": [
          -121.954201,
          37.354198
        ]
      },
      "properties": {
        "Name": "Tim Crawley",
        "Height": 67,
        "marker-color": "#9F8170"
      }
    },
    {
      "type": "Feature",
      "geometry": {
        "type": "Point",
        "coordinates": [
          -73.997803,
          41.926899
        ]
      },
      "properties": {
        "Name": "Javaris Murray",
        "Height": 67,
        "marker-color": "#9F8170"
      }
    },
    {
      "type": "Feature",
      "geometry": {
        "type": "Point",
        "coordinates": [
          -83.745796,
          42.283298
        ]
      },
      "properties": {
        "Name": "Brandis Yarrington",
        "Height": 67,
        "marker-color": "#9F8170"
      }
    },
    {
      "type": "Feature",
      "geometry": {
        "type": "Point",
        "coordinates": [
          -77.487801,
          39.043598
        ]
      },
      "properties": {
        "Name": "Essray Taliaferro",
        "Height": 67,
        "marker-color": "#9F8170"
      }
    },
    {
      "type": "Feature",
      "geometry": {
        "type": "Point",
        "coordinates": [
          -84.3881,
          33.748901
        ]
      },
      "properties": {
        "Name": "Deion Sanders Jr.",
        "Height": 67,
        "marker-color": "#9F8170"
      }
    },
    {
      "type": "Feature",
      "geometry": {
        "type": "Point",
        "coordinates": [
          -80.193901,
          25.773899
        ]
      },
      "properties": {
        "Name": "Charles Takeh",
        "Height": 67,
        "marker-color": "#9F8170"
      }
    },
    {
      "type": "Feature",
      "geometry": {
        "type": "Point",
        "coordinates": [
          -84.676903,
          34.0658
        ]
      },
      "properties": {
        "Name": "Robert Godhigh",
        "Height": 67,
        "marker-color": "#9F8170"
      }
    },
    {
      "type": "Feature",
      "geometry": {
        "type": "Point",
        "coordinates": [
          -80.588898,
          28.034201
        ]
      },
      "properties": {
        "Name": "Kenny Johnson",
        "Height": 67,
        "marker-color": "#9F8170"
      }
    },
    {
      "type": "Feature",
      "geometry": {
        "type": "Point",
        "coordinates": [
          -104.482498,
          39.0289
        ]
      },
      "properties": {
        "Name": "Brandon Albright",
        "Height": 67,
        "marker-color": "#9F8170"
      }
    },
    {
      "type": "Feature",
      "geometry": {
        "type": "Point",
        "coordinates": [
          -81.519203,
          41.081402
        ]
      },
      "properties": {
        "Name": "Ernest Calhoun",
        "Height": 67,
        "marker-color": "#9F8170"
      }
    },
    {
      "type": "Feature",
      "geometry": {
        "type": "Point",
        "coordinates": [
          -84.762199,
          33.875599
        ]
      },
      "properties": {
        "Name": "Tabari Williams",
        "Height": 67,
        "marker-color": "#9F8170"
      }
    },
    {
      "type": "Feature",
      "geometry": {
        "type": "Point",
        "coordinates": [
          -84.3881,
          33.748901
        ]
      },
      "properties": {
        "Name": "Ralph Abernathy",
        "Height": 67,
        "marker-color": "#9F8170"
      }
    },
    {
      "type": "Feature",
      "geometry": {
        "type": "Point",
        "coordinates": [
          -157.970535,
          21.394056
        ]
      },
      "properties": {
        "Name": "Ryan Ho",
        "Height": 67,
        "marker-color": "#9F8170"
      }
    },
    {
      "type": "Feature",
      "geometry": {
        "type": "Point",
        "coordinates": [
          -96.334198,
          30.6278
        ]
      },
      "properties": {
        "Name": "Quinton White",
        "Height": 67,
        "marker-color": "#9F8170"
      }
    },
    {
      "type": "Feature",
      "geometry": {
        "type": "Point",
        "coordinates": [
          -118.188301,
          33.766899
        ]
      },
      "properties": {
        "Name": "Dabness Atkins",
        "Height": 67,
        "marker-color": "#9F8170"
      }
    },
    {
      "type": "Feature",
      "geometry": {
        "type": "Point",
        "coordinates": [
          -83.045799,
          42.331402
        ]
      },
      "properties": {
        "Name": "Dennis Norfleet",
        "Height": 67,
        "marker-color": "#9F8170"
      }
    },
    {
      "type": "Feature",
      "geometry": {
        "type": "Point",
        "coordinates": [
          -80.252998,
          25.904551
        ]
      },
      "properties": {
        "Name": "Jason Douglas",
        "Height": 67,
        "marker-color": "#9F8170"
      }
    },
    {
      "type": "Feature",
      "geometry": {
        "type": "Point",
        "coordinates": [
          -81.379402,
          28.538099
        ]
      },
      "properties": {
        "Name": "Chase Butner",
        "Height": 67,
        "marker-color": "#9F8170"
      }
    },
    {
      "type": "Feature",
      "geometry": {
        "type": "Point",
        "coordinates": [
          -80.125,
          26.237499
        ]
      },
      "properties": {
        "Name": "Deshaun Sands",
        "Height": 67,
        "marker-color": "#9F8170"
      }
    },
    {
      "type": "Feature",
      "geometry": {
        "type": "Point",
        "coordinates": [
          -86.158096,
          39.768299
        ]
      },
      "properties": {
        "Name": "George Cheeseborough",
        "Height": 67,
        "marker-color": "#9F8170"
      }
    },
    {
      "type": "Feature",
      "geometry": {
        "type": "Point",
        "coordinates": [
          -76.940598,
          38.590302
        ]
      },
      "properties": {
        "Name": "Devon Smith",
        "Height": 67,
        "marker-color": "#9F8170"
      }
    },
    {
      "type": "Feature",
      "geometry": {
        "type": "Point",
        "coordinates": [
          -96.164703,
          32.721901
        ]
      },
      "properties": {
        "Name": "Trey Morse",
        "Height": 67,
        "marker-color": "#9F8170"
      }
    },
    {
      "type": "Feature",
      "geometry": {
        "type": "Point",
        "coordinates": [
          -80.193901,
          25.773899
        ]
      },
      "properties": {
        "Name": "Jermain Kelson",
        "Height": 67,
        "marker-color": "#9F8170"
      }
    },
    {
      "type": "Feature",
      "geometry": {
        "type": "Point",
        "coordinates": [
          -84.283096,
          33.386902
        ]
      },
      "properties": {
        "Name": "Jalen Hamilton",
        "Height": 67,
        "marker-color": "#9F8170"
      }
    },
    {
      "type": "Feature",
      "geometry": {
        "type": "Point",
        "coordinates": [
          -74.923103,
          40.1744
        ]
      },
      "properties": {
        "Name": "Ariel Hoffman",
        "Height": 67,
        "marker-color": "#9F8170"
      }
    },
    {
      "type": "Feature",
      "geometry": {
        "type": "Point",
        "coordinates": [
          -81.678299,
          29.991699
        ]
      },
      "properties": {
        "Name": "Eric Johnson",
        "Height": 67,
        "marker-color": "#9F8170"
      }
    },
    {
      "type": "Feature",
      "geometry": {
        "type": "Point",
        "coordinates": [
          -97.724197,
          35.384201
        ]
      },
      "properties": {
        "Name": "David Glidden",
        "Height": 67,
        "marker-color": "#9F8170"
      }
    },
    {
      "type": "Feature",
      "geometry": {
        "type": "Point",
        "coordinates": [
          -76.285599,
          36.846699
        ]
      },
      "properties": {
        "Name": "Eric Johnson",
        "Height": 67,
        "marker-color": "#9F8170"
      }
    },
    {
      "type": "Feature",
      "geometry": {
        "type": "Point",
        "coordinates": [
          -80.2444,
          36.099701
        ]
      },
      "properties": {
        "Name": "Trey Crosby",
        "Height": 67,
        "marker-color": "#9F8170"
      }
    },
    {
      "type": "Feature",
      "geometry": {
        "type": "Point",
        "coordinates": [
          -90.1847,
          32.298599
        ]
      },
      "properties": {
        "Name": "Dominick Fears",
        "Height": 67,
        "marker-color": "#9F8170"
      }
    },
    {
      "type": "Feature",
      "geometry": {
        "type": "Point",
        "coordinates": [
          -84.456902,
          39.1619
        ]
      },
      "properties": {
        "Name": "Tyler Williams",
        "Height": 67,
        "marker-color": "#9F8170"
      }
    },
    {
      "type": "Feature",
      "geometry": {
        "type": "Point",
        "coordinates": [
          -118.242798,
          34.0522
        ]
      },
      "properties": {
        "Name": "Librado Barocio",
        "Height": 67,
        "marker-color": "#9F8170"
      }
    },
    {
      "type": "Feature",
      "geometry": {
        "type": "Point",
        "coordinates": [
          -90.338097,
          29.5425
        ]
      },
      "properties": {
        "Name": "Russ Gisclair",
        "Height": 67,
        "marker-color": "#9F8170"
      }
    },
    {
      "type": "Feature",
      "geometry": {
        "type": "Point",
        "coordinates": [
          -95.094704,
          29.5072
        ]
      },
      "properties": {
        "Name": "Sam E. Richardson",
        "Height": 67,
        "marker-color": "#9F8170"
      }
    },
    {
      "type": "Feature",
      "geometry": {
        "type": "Point",
        "coordinates": [
          -94.9711,
          29.368299
        ]
      },
      "properties": {
        "Name": "Michael Gilmore",
        "Height": 67,
        "marker-color": "#9F8170"
      }
    },
    {
      "type": "Feature",
      "geometry": {
        "type": "Point",
        "coordinates": [
          -81.992203,
          34.833302
        ]
      },
      "properties": {
        "Name": "Nick Jones",
        "Height": 67,
        "marker-color": "#9F8170"
      }
    },
    {
      "type": "Feature",
      "geometry": {
        "type": "Point",
        "coordinates": [
          -91.154404,
          30.4506
        ]
      },
      "properties": {
        "Name": "Blane Arnold",
        "Height": 67,
        "marker-color": "#9F8170"
      }
    },
    {
      "type": "Feature",
      "geometry": {
        "type": "Point",
        "coordinates": [
          -118.1436,
          34.1478
        ]
      },
      "properties": {
        "Name": "Malcolm Marable",
        "Height": 67,
        "marker-color": "#9F8170"
      }
    },
    {
      "type": "Feature",
      "geometry": {
        "type": "Point",
        "coordinates": [
          -73.694397,
          41.785
        ]
      },
      "properties": {
        "Name": "David Hollingsworth",
        "Height": 67,
        "marker-color": "#9F8170"
      }
    },
    {
      "type": "Feature",
      "geometry": {
        "type": "Point",
        "coordinates": [
          -118.188301,
          33.766899
        ]
      },
      "properties": {
        "Name": "Terris Jones",
        "Height": 67,
        "marker-color": "#9F8170"
      }
    },
    {
      "type": "Feature",
      "geometry": {
        "type": "Point",
        "coordinates": [
          -82.458603,
          27.947201
        ]
      },
      "properties": {
        "Name": "Brandon Holloway",
        "Height": 67,
        "marker-color": "#9F8170"
      }
    },
    {
      "type": "Feature",
      "geometry": {
        "type": "Point",
        "coordinates": [
          -74.172203,
          40.916698
        ]
      },
      "properties": {
        "Name": "Tony Jones",
        "Height": 67,
        "marker-color": "#9F8170"
      }
    },
    {
      "type": "Feature",
      "geometry": {
        "type": "Point",
        "coordinates": [
          -121.289703,
          37.957802
        ]
      },
      "properties": {
        "Name": "Josh Brown",
        "Height": 67,
        "marker-color": "#9F8170"
      }
    },
    {
      "type": "Feature",
      "geometry": {
        "type": "Point",
        "coordinates": [
          -90.048897,
          35.149399
        ]
      },
      "properties": {
        "Name": "Terrence Oliver",
        "Height": 67,
        "marker-color": "#9F8170"
      }
    },
    {
      "type": "Feature",
      "geometry": {
        "type": "Point",
        "coordinates": [
          -82.113098,
          28.018299
        ]
      },
      "properties": {
        "Name": "Sirchauncey Holloway",
        "Height": 67,
        "marker-color": "#9F8170"
      }
    },
    {
      "type": "Feature",
      "geometry": {
        "type": "Point",
        "coordinates": [
          -104.831398,
          39.729401
        ]
      },
      "properties": {
        "Name": "Quentin Hildreth",
        "Height": 67,
        "marker-color": "#9F8170"
      }
    },
    {
      "type": "Feature",
      "geometry": {
        "type": "Point",
        "coordinates": [
          -122.433296,
          47.104198
        ]
      },
      "properties": {
        "Name": "Anthony Meray",
        "Height": 67,
        "marker-color": "#9F8170"
      }
    },
    {
      "type": "Feature",
      "geometry": {
        "type": "Point",
        "coordinates": [
          -84.3881,
          33.748901
        ]
      },
      "properties": {
        "Name": "Brendan Johnson",
        "Height": 67,
        "marker-color": "#9F8170"
      }
    },
    {
      "type": "Feature",
      "geometry": {
        "type": "Point",
        "coordinates": [
          -78.898903,
          35.9939
        ]
      },
      "properties": {
        "Name": "Geovonie Irvine",
        "Height": 67,
        "marker-color": "#9F8170"
      }
    },
    {
      "type": "Feature",
      "geometry": {
        "type": "Point",
        "coordinates": [
          -75.978302,
          36.852798
        ]
      },
      "properties": {
        "Name": "Nick Mayers",
        "Height": 67,
        "marker-color": "#9F8170"
      }
    },
    {
      "type": "Feature",
      "geometry": {
        "type": "Point",
        "coordinates": [
          -90.0625,
          29.957079
        ]
      },
      "properties": {
        "Name": "Kenneth Dabney",
        "Height": 67,
        "marker-color": "#9F8170"
      }
    },
    {
      "type": "Feature",
      "geometry": {
        "type": "Point",
        "coordinates": [
          -86.608902,
          33.619701
        ]
      },
      "properties": {
        "Name": "Brian Mann",
        "Height": 67,
        "marker-color": "#9F8170"
      }
    },
    {
      "type": "Feature",
      "geometry": {
        "type": "Point",
        "coordinates": [
          -84.004402,
          34.120602
        ]
      },
      "properties": {
        "Name": "Cody Getz",
        "Height": 67,
        "marker-color": "#9F8170"
      }
    },
    {
      "type": "Feature",
      "geometry": {
        "type": "Point",
        "coordinates": [
          -122.233597,
          47.3811
        ]
      },
      "properties": {
        "Name": "Darrius Coleman",
        "Height": 67,
        "marker-color": "#9F8170"
      }
    },
    {
      "type": "Feature",
      "geometry": {
        "type": "Point",
        "coordinates": [
          -73.949997,
          40.650002
        ]
      },
      "properties": {
        "Name": "JaKim Williamson",
        "Height": 67,
        "marker-color": "#9F8170"
      }
    },
    {
      "type": "Feature",
      "geometry": {
        "type": "Point",
        "coordinates": [
          -80.065804,
          40.465599
        ]
      },
      "properties": {
        "Name": "Nick McCune",
        "Height": 67,
        "marker-color": "#9F8170"
      }
    },
    {
      "type": "Feature",
      "geometry": {
        "type": "Point",
        "coordinates": [
          -118.529999,
          34.384701
        ]
      },
      "properties": {
        "Name": "C.J. Reyes",
        "Height": 67,
        "marker-color": "#9F8170"
      }
    },
    {
      "type": "Feature",
      "geometry": {
        "type": "Point",
        "coordinates": [
          -88.611702,
          30.385599
        ]
      },
      "properties": {
        "Name": "James Richards",
        "Height": 67,
        "marker-color": "#9F8170"
      }
    },
    {
      "type": "Feature",
      "geometry": {
        "type": "Point",
        "coordinates": [
          -84.296402,
          33.7747
        ]
      },
      "properties": {
        "Name": "Justin Sims",
        "Height": 67,
        "marker-color": "#9F8170"
      }
    },
    {
      "type": "Feature",
      "geometry": {
        "type": "Point",
        "coordinates": [
          -83.158302,
          40.033298
        ]
      },
      "properties": {
        "Name": "Terell Stanford",
        "Height": 67,
        "marker-color": "#9F8170"
      }
    },
    {
      "type": "Feature",
      "geometry": {
        "type": "Point",
        "coordinates": [
          -118.471107,
          34.423328
        ]
      },
      "properties": {
        "Name": "Max Archuleta",
        "Height": 67,
        "marker-color": "#9F8170"
      }
    },
    {
      "type": "Feature",
      "geometry": {
        "type": "Point",
        "coordinates": [
          -84.143097,
          33.889999
        ]
      },
      "properties": {
        "Name": "Ed Collins",
        "Height": 67,
        "marker-color": "#9F8170"
      }
    },
    {
      "type": "Feature",
      "geometry": {
        "type": "Point",
        "coordinates": [
          -81.407799,
          28.2917
        ]
      },
      "properties": {
        "Name": "Akeem Daniels",
        "Height": 67,
        "marker-color": "#9F8170"
      }
    },
    {
      "type": "Feature",
      "geometry": {
        "type": "Point",
        "coordinates": [
          -118.011101,
          33.917198
        ]
      },
      "properties": {
        "Name": "Adam Padilla",
        "Height": 67,
        "marker-color": "#9F8170"
      }
    },
    {
      "type": "Feature",
      "geometry": {
        "type": "Point",
        "coordinates": [
          -81.695602,
          41.499401
        ]
      },
      "properties": {
        "Name": "Shane Wynn",
        "Height": 67,
        "marker-color": "#9F8170"
      }
    },
    {
      "type": "Feature",
      "geometry": {
        "type": "Point",
        "coordinates": [
          -80.193901,
          25.773899
        ]
      },
      "properties": {
        "Name": "Wandy Saintilien",
        "Height": 67,
        "marker-color": "#9F8170"
      }
    },
    {
      "type": "Feature",
      "geometry": {
        "type": "Point",
        "coordinates": [
          -82.7472,
          31.0364
        ]
      },
      "properties": {
        "Name": "Trey Dorsey",
        "Height": 67,
        "marker-color": "#9F8170"
      }
    },
    {
      "type": "Feature",
      "geometry": {
        "type": "Point",
        "coordinates": [
          -73.837502,
          40.912498
        ]
      },
      "properties": {
        "Name": "Justin Combs",
        "Height": 67,
        "marker-color": "#9F8170"
      }
    },
    {
      "type": "Feature",
      "geometry": {
        "type": "Point",
        "coordinates": [
          -95.6008,
          33.138302
        ]
      },
      "properties": {
        "Name": "Kendrick Daniels",
        "Height": 67,
        "marker-color": "#9F8170"
      }
    },
    {
      "type": "Feature",
      "geometry": {
        "type": "Point",
        "coordinates": [
          -88.175301,
          30.547501
        ]
      },
      "properties": {
        "Name": "Terrance Timmons",
        "Height": 67,
        "marker-color": "#9F8170"
      }
    },
    {
      "type": "Feature",
      "geometry": {
        "type": "Point",
        "coordinates": [
          -84.799698,
          33.3806
        ]
      },
      "properties": {
        "Name": "Otis Gates",
        "Height": 67,
        "marker-color": "#9F8170"
      }
    },
    {
      "type": "Feature",
      "geometry": {
        "type": "Point",
        "coordinates": [
          -92.6661,
          33.2075
        ]
      },
      "properties": {
        "Name": "Cameron Mahone",
        "Height": 67,
        "marker-color": "#9F8170"
      }
    },
    {
      "type": "Feature",
      "geometry": {
        "type": "Point",
        "coordinates": [
          -81.6558,
          30.3319
        ]
      },
      "properties": {
        "Name": "Kevin King",
        "Height": 67,
        "marker-color": "#9F8170"
      }
    },
    {
      "type": "Feature",
      "geometry": {
        "type": "Point",
        "coordinates": [
          -80.403053,
          26.108917
        ]
      },
      "properties": {
        "Name": "D.J. Soven",
        "Height": 67,
        "marker-color": "#9F8170"
      }
    },
    {
      "type": "Feature",
      "geometry": {
        "type": "Point",
        "coordinates": [
          -122.838898,
          45.356701
        ]
      },
      "properties": {
        "Name": "Steven Long",
        "Height": 67,
        "marker-color": "#9F8170"
      }
    },
    {
      "type": "Feature",
      "geometry": {
        "type": "Point",
        "coordinates": [
          -115.780602,
          47.996101
        ]
      },
      "properties": {
        "Name": "Adam Moore",
        "Height": 67,
        "marker-color": "#9F8170"
      }
    },
    {
      "type": "Feature",
      "geometry": {
        "type": "Point",
        "coordinates": [
          -96.563599,
          32.902802
        ]
      },
      "properties": {
        "Name": "Stephane Turner",
        "Height": 67,
        "marker-color": "#9F8170"
      }
    },
    {
      "type": "Feature",
      "geometry": {
        "type": "Point",
        "coordinates": [
          -88.314697,
          36.610298
        ]
      },
      "properties": {
        "Name": "Bob Fields",
        "Height": 67,
        "marker-color": "#9F8170"
      }
    },
    {
      "type": "Feature",
      "geometry": {
        "type": "Point",
        "coordinates": [
          -117.434196,
          34.092201
        ]
      },
      "properties": {
        "Name": "David Dash",
        "Height": 67,
        "marker-color": "#9F8170"
      }
    },
    {
      "type": "Feature",
      "geometry": {
        "type": "Point",
        "coordinates": [
          -73.5392,
          41.053299
        ]
      },
      "properties": {
        "Name": "Mike Samela",
        "Height": 67,
        "marker-color": "#9F8170"
      }
    },
    {
      "type": "Feature",
      "geometry": {
        "type": "Point",
        "coordinates": [
          -83.7892,
          31.179701
        ]
      },
      "properties": {
        "Name": "Tevin King",
        "Height": 67,
        "marker-color": "#9F8170"
      }
    },
    {
      "type": "Feature",
      "geometry": {
        "type": "Point",
        "coordinates": [
          -118.881104,
          34.285599
        ]
      },
      "properties": {
        "Name": "Alex Tolliver",
        "Height": 67,
        "marker-color": "#9F8170"
      }
    },
    {
      "type": "Feature",
      "geometry": {
        "type": "Point",
        "coordinates": [
          -86.911903,
          33.485802
        ]
      },
      "properties": {
        "Name": "Earvin McKenzie",
        "Height": 67,
        "marker-color": "#9F8170"
      }
    },
    {
      "type": "Feature",
      "geometry": {
        "type": "Point",
        "coordinates": [
          -118.586304,
          34.389099
        ]
      },
      "properties": {
        "Name": "Jeffrey Coprich",
        "Height": 67,
        "marker-color": "#9F8170"
      }
    },
    {
      "type": "Feature",
      "geometry": {
        "type": "Point",
        "coordinates": [
          -158.077698,
          21.336399
        ]
      },
      "properties": {
        "Name": "Donnie King Jr.",
        "Height": 67,
        "marker-color": "#9F8170"
      }
    },
    {
      "type": "Feature",
      "geometry": {
        "type": "Point",
        "coordinates": [
          -73.207802,
          41.3325
        ]
      },
      "properties": {
        "Name": "Nick Bacarella",
        "Height": 67,
        "marker-color": "#9F8170"
      }
    },
    {
      "type": "Feature",
      "geometry": {
        "type": "Point",
        "coordinates": [
          -79.792198,
          36.072498
        ]
      },
      "properties": {
        "Name": "Eric Davidson",
        "Height": 67,
        "marker-color": "#9F8170"
      }
    },
    {
      "type": "Feature",
      "geometry": {
        "type": "Point",
        "coordinates": [
          -83.278603,
          30.8325
        ]
      },
      "properties": {
        "Name": "Shaq Beverly",
        "Height": 67,
        "marker-color": "#9F8170"
      }
    },
    {
      "type": "Feature",
      "geometry": {
        "type": "Point",
        "coordinates": [
          -73.949997,
          40.650002
        ]
      },
      "properties": {
        "Name": "Steve Rene",
        "Height": 67,
        "marker-color": "#9F8170"
      }
    },
    {
      "type": "Feature",
      "geometry": {
        "type": "Point",
        "coordinates": [
          -86.784401,
          36.165798
        ]
      },
      "properties": {
        "Name": "Ladarius Vanlier",
        "Height": 67,
        "marker-color": "#9F8170"
      }
    },
    {
      "type": "Feature",
      "geometry": {
        "type": "Point",
        "coordinates": [
          -89.654999,
          37.18
        ]
      },
      "properties": {
        "Name": "Tyson Estes",
        "Height": 67,
        "marker-color": "#9F8170"
      }
    },
    {
      "type": "Feature",
      "geometry": {
        "type": "Point",
        "coordinates": [
          -96.605598,
          46.265301
        ]
      },
      "properties": {
        "Name": "Ryan Smith",
        "Height": 67,
        "marker-color": "#9F8170"
      }
    },
    {
      "type": "Feature",
      "geometry": {
        "type": "Point",
        "coordinates": [
          -158.00444,
          21.31246
        ]
      },
      "properties": {
        "Name": "Samson Anguay",
        "Height": 67,
        "marker-color": "#9F8170"
      }
    },
    {
      "type": "Feature",
      "geometry": {
        "type": "Point",
        "coordinates": [
          -85.164703,
          34.256901
        ]
      },
      "properties": {
        "Name": "Reggie Whatley",
        "Height": 67,
        "marker-color": "#9F8170"
      }
    },
    {
      "type": "Feature",
      "geometry": {
        "type": "Point",
        "coordinates": [
          -88.1269,
          30.7633
        ]
      },
      "properties": {
        "Name": "Janawski Davis",
        "Height": 67,
        "marker-color": "#9F8170"
      }
    },
    {
      "type": "Feature",
      "geometry": {
        "type": "Point",
        "coordinates": [
          -82.679398,
          27.770599
        ]
      },
      "properties": {
        "Name": "Jarvis West",
        "Height": 67,
        "marker-color": "#9F8170"
      }
    },
    {
      "type": "Feature",
      "geometry": {
        "type": "Point",
        "coordinates": [
          -118.242798,
          34.0522
        ]
      },
      "properties": {
        "Name": "Sam Miller",
        "Height": 67,
        "marker-color": "#9F8170"
      }
    },
    {
      "type": "Feature",
      "geometry": {
        "type": "Point",
        "coordinates": [
          -81.379402,
          28.538099
        ]
      },
      "properties": {
        "Name": "Diante' Harrison",
        "Height": 67,
        "marker-color": "#9F8170"
      }
    },
    {
      "type": "Feature",
      "geometry": {
        "type": "Point",
        "coordinates": [
          -84.456902,
          39.1619
        ]
      },
      "properties": {
        "Name": "Kenneth Davis",
        "Height": 67,
        "marker-color": "#9F8170"
      }
    },
    {
      "type": "Feature",
      "geometry": {
        "type": "Point",
        "coordinates": [
          -112.073303,
          33.448299
        ]
      },
      "properties": {
        "Name": "Ademola Adeniran",
        "Height": 67,
        "marker-color": "#9F8170"
      }
    },
    {
      "type": "Feature",
      "geometry": {
        "type": "Point",
        "coordinates": [
          -94.1017,
          30.0858
        ]
      },
      "properties": {
        "Name": "Josh Wilson",
        "Height": 67,
        "marker-color": "#9F8170"
      }
    },
    {
      "type": "Feature",
      "geometry": {
        "type": "Point",
        "coordinates": [
          -93.75,
          32.525002
        ]
      },
      "properties": {
        "Name": "Richard Carthon",
        "Height": 67,
        "marker-color": "#9F8170"
      }
    },
    {
      "type": "Feature",
      "geometry": {
        "type": "Point",
        "coordinates": [
          -84.296402,
          33.7747
        ]
      },
      "properties": {
        "Name": "William Pratcher",
        "Height": 67,
        "marker-color": "#9F8170"
      }
    },
    {
      "type": "Feature",
      "geometry": {
        "type": "Point",
        "coordinates": [
          -96.5989,
          32.7667
        ]
      },
      "properties": {
        "Name": "Brandon Durham",
        "Height": 67,
        "marker-color": "#9F8170"
      }
    },
    {
      "type": "Feature",
      "geometry": {
        "type": "Point",
        "coordinates": [
          -118.296898,
          33.790001
        ]
      },
      "properties": {
        "Name": "Leon Brooks",
        "Height": 67,
        "marker-color": "#9F8170"
      }
    },
    {
      "type": "Feature",
      "geometry": {
        "type": "Point",
        "coordinates": [
          -82.140297,
          29.186899
        ]
      },
      "properties": {
        "Name": "David Thomas",
        "Height": 67,
        "marker-color": "#9F8170"
      }
    },
    {
      "type": "Feature",
      "geometry": {
        "type": "Point",
        "coordinates": [
          -87.86956,
          41.813251
        ]
      },
      "properties": {
        "Name": "Mike Javorski",
        "Height": 67,
        "marker-color": "#9F8170"
      }
    },
    {
      "type": "Feature",
      "geometry": {
        "type": "Point",
        "coordinates": [
          -95.363098,
          29.7631
        ]
      },
      "properties": {
        "Name": "Wes Harlan",
        "Height": 67,
        "marker-color": "#9F8170"
      }
    },
    {
      "type": "Feature",
      "geometry": {
        "type": "Point",
        "coordinates": [
          -117.565598,
          33.875301
        ]
      },
      "properties": {
        "Name": "Brandon Flanagan",
        "Height": 67,
        "marker-color": "#9F8170"
      }
    },
    {
      "type": "Feature",
      "geometry": {
        "type": "Point",
        "coordinates": [
          -91.154404,
          30.4506
        ]
      },
      "properties": {
        "Name": "Marcus Thomas",
        "Height": 67,
        "marker-color": "#9F8170"
      }
    },
    {
      "type": "Feature",
      "geometry": {
        "type": "Point",
        "coordinates": [
          -80.565804,
          28.089199
        ]
      },
      "properties": {
        "Name": "J.T. Washington",
        "Height": 67,
        "marker-color": "#9F8170"
      }
    },
    {
      "type": "Feature",
      "geometry": {
        "type": "Point",
        "coordinates": [
          -81.379402,
          28.538099
        ]
      },
      "properties": {
        "Name": "Aleem Sunanon",
        "Height": 67,
        "marker-color": "#9F8170"
      }
    },
    {
      "type": "Feature",
      "geometry": {
        "type": "Point",
        "coordinates": [
          -77.441902,
          37.356701
        ]
      },
      "properties": {
        "Name": "Ryan Davis",
        "Height": 67,
        "marker-color": "#9F8170"
      }
    },
    {
      "type": "Feature",
      "geometry": {
        "type": "Point",
        "coordinates": [
          -90.215599,
          29.959999
        ]
      },
      "properties": {
        "Name": "Josh Hanberry",
        "Height": 67,
        "marker-color": "#9F8170"
      }
    },
    {
      "type": "Feature",
      "geometry": {
        "type": "Point",
        "coordinates": [
          -78.835297,
          40.2397
        ]
      },
      "properties": {
        "Name": "Dane Domonkos",
        "Height": 67,
        "marker-color": "#9F8170"
      }
    },
    {
      "type": "Feature",
      "geometry": {
        "type": "Point",
        "coordinates": [
          -91.301903,
          29.6931
        ]
      },
      "properties": {
        "Name": "Mark Jones",
        "Height": 67,
        "marker-color": "#9F8170"
      }
    },
    {
      "type": "Feature",
      "geometry": {
        "type": "Point",
        "coordinates": [
          -73.994637,
          40.720409
        ]
      },
      "properties": {
        "Name": "Steven Broccoli",
        "Height": 67,
        "marker-color": "#9F8170"
      }
    },
    {
      "type": "Feature",
      "geometry": {
        "type": "Point",
        "coordinates": [
          -121.804703,
          38.005001
        ]
      },
      "properties": {
        "Name": "Kylan Butler",
        "Height": 67,
        "marker-color": "#9F8170"
      }
    },
    {
      "type": "Feature",
      "geometry": {
        "type": "Point",
        "coordinates": [
          -96.997498,
          32.7458
        ]
      },
      "properties": {
        "Name": "Ricky Pratt",
        "Height": 67,
        "marker-color": "#9F8170"
      }
    },
    {
      "type": "Feature",
      "geometry": {
        "type": "Point",
        "coordinates": [
          -82.998901,
          39.961102
        ]
      },
      "properties": {
        "Name": "Devonte Butler",
        "Height": 67,
        "marker-color": "#9F8170"
      }
    },
    {
      "type": "Feature",
      "geometry": {
        "type": "Point",
        "coordinates": [
          -96.9953,
          37.2397
        ]
      },
      "properties": {
        "Name": "Luke Pray",
        "Height": 67,
        "marker-color": "#9F8170"
      }
    },
    {
      "type": "Feature",
      "geometry": {
        "type": "Point",
        "coordinates": [
          -76.612503,
          39.290298
        ]
      },
      "properties": {
        "Name": "Leroy Bradford",
        "Height": 67,
        "marker-color": "#9F8170"
      }
    },
    {
      "type": "Feature",
      "geometry": {
        "type": "Point",
        "coordinates": [
          -81.872498,
          26.640301
        ]
      },
      "properties": {
        "Name": "Mike Anderson",
        "Height": 67,
        "marker-color": "#9F8170"
      }
    },
    {
      "type": "Feature",
      "geometry": {
        "type": "Point",
        "coordinates": [
          -77.4608,
          38.303101
        ]
      },
      "properties": {
        "Name": "Darrian Johnson",
        "Height": 67,
        "marker-color": "#9F8170"
      }
    },
    {
      "type": "Feature",
      "geometry": {
        "type": "Point",
        "coordinates": [
          -82.5308,
          27.3361
        ]
      },
      "properties": {
        "Name": "C.J. Shelley",
        "Height": 67,
        "marker-color": "#9F8170"
      }
    },
    {
      "type": "Feature",
      "geometry": {
        "type": "Point",
        "coordinates": [
          -79.996101,
          40.440601
        ]
      },
      "properties": {
        "Name": "Damion Jones-Moore",
        "Height": 67,
        "marker-color": "#9F8170"
      }
    },
    {
      "type": "Feature",
      "geometry": {
        "type": "Point",
        "coordinates": [
          -82.113098,
          28.018299
        ]
      },
      "properties": {
        "Name": "Keith Dawson",
        "Height": 67,
        "marker-color": "#9F8170"
      }
    },
    {
      "type": "Feature",
      "geometry": {
        "type": "Point",
        "coordinates": [
          -87.68338,
          41.440033
        ]
      },
      "properties": {
        "Name": "Mike Banks",
        "Height": 67,
        "marker-color": "#9F8170"
      }
    },
    {
      "type": "Feature",
      "geometry": {
        "type": "Point",
        "coordinates": [
          -121.214996,
          37.797501
        ]
      },
      "properties": {
        "Name": "Beau Fryer",
        "Height": 67,
        "marker-color": "#9F8170"
      }
    },
    {
      "type": "Feature",
      "geometry": {
        "type": "Point",
        "coordinates": [
          -80.1436,
          26.121901
        ]
      },
      "properties": {
        "Name": "Johnny Joseph",
        "Height": 67,
        "marker-color": "#9F8170"
      }
    },
    {
      "type": "Feature",
      "geometry": {
        "type": "Point",
        "coordinates": [
          -97.320602,
          32.725299
        ]
      },
      "properties": {
        "Name": "Nick Rockwell",
        "Height": 67,
        "marker-color": "#9F8170"
      }
    },
    {
      "type": "Feature",
      "geometry": {
        "type": "Point",
        "coordinates": [
          -117.904404,
          33.976101
        ]
      },
      "properties": {
        "Name": "Brandon Stansell",
        "Height": 67,
        "marker-color": "#9F8170"
      }
    },
    {
      "type": "Feature",
      "geometry": {
        "type": "Point",
        "coordinates": [
          -92.019699,
          30.2239
        ]
      },
      "properties": {
        "Name": "Adam Savoie",
        "Height": 67,
        "marker-color": "#9F8170"
      }
    },
    {
      "type": "Feature",
      "geometry": {
        "type": "Point",
        "coordinates": [
          -122.0597,
          37.948101
        ]
      },
      "properties": {
        "Name": "Corey Paclebar",
        "Height": 67,
        "marker-color": "#9F8170"
      }
    },
    {
      "type": "Feature",
      "geometry": {
        "type": "Point",
        "coordinates": [
          -119.176102,
          34.197498
        ]
      },
      "properties": {
        "Name": "Sam McCowan",
        "Height": 67,
        "marker-color": "#9F8170"
      }
    },
    {
      "type": "Feature",
      "geometry": {
        "type": "Point",
        "coordinates": [
          -86.118103,
          39.978298
        ]
      },
      "properties": {
        "Name": "Mitchell Paige",
        "Height": 67,
        "marker-color": "#9F8170"
      }
    },
    {
      "type": "Feature",
      "geometry": {
        "type": "Point",
        "coordinates": [
          -81.872498,
          26.640301
        ]
      },
      "properties": {
        "Name": "Mark Deboy",
        "Height": 67,
        "marker-color": "#9F8170"
      }
    },
    {
      "type": "Feature",
      "geometry": {
        "type": "Point",
        "coordinates": [
          -76.4925,
          38.978298
        ]
      },
      "properties": {
        "Name": "Darrell Green",
        "Height": 67,
        "marker-color": "#9F8170"
      }
    },
    {
      "type": "Feature",
      "geometry": {
        "type": "Point",
        "coordinates": [
          -97.1464,
          31.5492
        ]
      },
      "properties": {
        "Name": "John Hubert",
        "Height": 67,
        "marker-color": "#9F8170"
      }
    },
    {
      "type": "Feature",
      "geometry": {
        "type": "Point",
        "coordinates": [
          -88.9506,
          34.729698
        ]
      },
      "properties": {
        "Name": "Jaquise Cook",
        "Height": 67,
        "marker-color": "#9F8170"
      }
    },
    {
      "type": "Feature",
      "geometry": {
        "type": "Point",
        "coordinates": [
          -80.278297,
          25.857201
        ]
      },
      "properties": {
        "Name": "Jerron Seymour",
        "Height": 67,
        "marker-color": "#9F8170"
      }
    },
    {
      "type": "Feature",
      "geometry": {
        "type": "Point",
        "coordinates": [
          -84.360603,
          39.863098
        ]
      },
      "properties": {
        "Name": "Quintin Cooper",
        "Height": 67,
        "marker-color": "#9F8170"
      }
    },
    {
      "type": "Feature",
      "geometry": {
        "type": "Point",
        "coordinates": [
          -76.75,
          38.8158
        ]
      },
      "properties": {
        "Name": "Donald Quarles",
        "Height": 67,
        "marker-color": "#9F8170"
      }
    },
    {
      "type": "Feature",
      "geometry": {
        "type": "Point",
        "coordinates": [
          -80.057198,
          26.615601
        ]
      },
      "properties": {
        "Name": "Terrell Badie",
        "Height": 67,
        "marker-color": "#9F8170"
      }
    },
    {
      "type": "Feature",
      "geometry": {
        "type": "Point",
        "coordinates": [
          -117.156403,
          32.715302
        ]
      },
      "properties": {
        "Name": "Kenn James",
        "Height": 67,
        "marker-color": "#9F8170"
      }
    },
    {
      "type": "Feature",
      "geometry": {
        "type": "Point",
        "coordinates": [
          -82.458603,
          27.947201
        ]
      },
      "properties": {
        "Name": "Allen Sampson",
        "Height": 67,
        "marker-color": "#9F8170"
      }
    },
    {
      "type": "Feature",
      "geometry": {
        "type": "Point",
        "coordinates": [
          -74.160301,
          40.822201
        ]
      },
      "properties": {
        "Name": "Matt DelMauro",
        "Height": 67,
        "marker-color": "#9F8170"
      }
    },
    {
      "type": "Feature",
      "geometry": {
        "type": "Point",
        "coordinates": [
          -95.808296,
          29.5569
        ]
      },
      "properties": {
        "Name": "D.D. Goodson",
        "Height": 67,
        "marker-color": "#9F8170"
      }
    },
    {
      "type": "Feature",
      "geometry": {
        "type": "Point",
        "coordinates": [
          -74.173302,
          41.009399
        ]
      },
      "properties": {
        "Name": "Kevin Scanlon",
        "Height": 67,
        "marker-color": "#9F8170"
      }
    },
    {
      "type": "Feature",
      "geometry": {
        "type": "Point",
        "coordinates": [
          -106.486397,
          31.7586
        ]
      },
      "properties": {
        "Name": "Jacob Martinez",
        "Height": 67,
        "marker-color": "#9F8170"
      }
    },
    {
      "type": "Feature",
      "geometry": {
        "type": "Point",
        "coordinates": [
          -80.200302,
          35.349998
        ]
      },
      "properties": {
        "Name": "Desi Dockery",
        "Height": 67,
        "marker-color": "#9F8170"
      }
    },
    {
      "type": "Feature",
      "geometry": {
        "type": "Point",
        "coordinates": [
          -74.144203,
          41.0886
        ]
      },
      "properties": {
        "Name": "Patrick Murray",
        "Height": 67,
        "marker-color": "#9F8170"
      }
    },
    {
      "type": "Feature",
      "geometry": {
        "type": "Point",
        "coordinates": [
          -84.3881,
          33.748901
        ]
      },
      "properties": {
        "Name": "Desmond Vallean",
        "Height": 67,
        "marker-color": "#9F8170"
      }
    },
    {
      "type": "Feature",
      "geometry": {
        "type": "Point",
        "coordinates": [
          -80.193901,
          25.773899
        ]
      },
      "properties": {
        "Name": "Sorie Bayoh",
        "Height": 67,
        "marker-color": "#9F8170"
      }
    },
    {
      "type": "Feature",
      "geometry": {
        "type": "Point",
        "coordinates": [
          -96.078102,
          30.0972
        ]
      },
      "properties": {
        "Name": "Chris Booker",
        "Height": 67,
        "marker-color": "#9F8170"
      }
    },
    {
      "type": "Feature",
      "geometry": {
        "type": "Point",
        "coordinates": [
          -90.132202,
          32.428299
        ]
      },
      "properties": {
        "Name": "B.J. Lee",
        "Height": 67,
        "marker-color": "#9F8170"
      }
    },
    {
      "type": "Feature",
      "geometry": {
        "type": "Point",
        "coordinates": [
          -81.428902,
          35.361401
        ]
      },
      "properties": {
        "Name": "Darius Ramsey",
        "Height": 67,
        "marker-color": "#9F8170"
      }
    },
    {
      "type": "Feature",
      "geometry": {
        "type": "Point",
        "coordinates": [
          -83.382149,
          42.569214
        ]
      },
      "properties": {
        "Name": "C.J. Brathwaite",
        "Height": 67,
        "marker-color": "#9F8170"
      }
    },
    {
      "type": "Feature",
      "geometry": {
        "type": "Point",
        "coordinates": [
          -88.043098,
          30.694201
        ]
      },
      "properties": {
        "Name": "Chris Lewis",
        "Height": 67,
        "marker-color": "#9F8170"
      }
    },
    {
      "type": "Feature",
      "geometry": {
        "type": "Point",
        "coordinates": [
          -77.306702,
          38.8461
        ]
      },
      "properties": {
        "Name": "Kristofer O'Bryant",
        "Height": 67,
        "marker-color": "#9F8170"
      }
    },
    {
      "type": "Feature",
      "geometry": {
        "type": "Point",
        "coordinates": [
          -79.5867,
          34.643902
        ]
      },
      "properties": {
        "Name": "Joshua Blue",
        "Height": 67,
        "marker-color": "#9F8170"
      }
    },
    {
      "type": "Feature",
      "geometry": {
        "type": "Point",
        "coordinates": [
          -76.839699,
          39.240299
        ]
      },
      "properties": {
        "Name": "Kelechi Odocha",
        "Height": 67,
        "marker-color": "#9F8170"
      }
    },
    {
      "type": "Feature",
      "geometry": {
        "type": "Point",
        "coordinates": [
          -80.193901,
          25.773899
        ]
      },
      "properties": {
        "Name": "Jeff Scott",
        "Height": 67,
        "marker-color": "#9F8170"
      }
    },
    {
      "type": "Feature",
      "geometry": {
        "type": "Point",
        "coordinates": [
          -81.035004,
          34.000599
        ]
      },
      "properties": {
        "Name": "Grant Clayton",
        "Height": 67,
        "marker-color": "#9F8170"
      }
    },
    {
      "type": "Feature",
      "geometry": {
        "type": "Point",
        "coordinates": [
          -116.202499,
          43.613602
        ]
      },
      "properties": {
        "Name": "Josh Borgman",
        "Height": 67,
        "marker-color": "#9F8170"
      }
    },
    {
      "type": "Feature",
      "geometry": {
        "type": "Point",
        "coordinates": [
          -79.7883,
          40.421101
        ]
      },
      "properties": {
        "Name": "Cameron Saddler",
        "Height": 67,
        "marker-color": "#9F8170"
      }
    },
    {
      "type": "Feature",
      "geometry": {
        "type": "Point",
        "coordinates": [
          -92.019699,
          30.2239
        ]
      },
      "properties": {
        "Name": "Matthew Flores",
        "Height": 67,
        "marker-color": "#9F8170"
      }
    },
    {
      "type": "Feature",
      "geometry": {
        "type": "Point",
        "coordinates": [
          -119.7714,
          36.747799
        ]
      },
      "properties": {
        "Name": "Demetrius Warren",
        "Height": 67,
        "marker-color": "#9F8170"
      }
    },
    {
      "type": "Feature",
      "geometry": {
        "type": "Point",
        "coordinates": [
          -117.395302,
          33.9533
        ]
      },
      "properties": {
        "Name": "SaDale Foster",
        "Height": 67,
        "marker-color": "#9F8170"
      }
    },
    {
      "type": "Feature",
      "geometry": {
        "type": "Point",
        "coordinates": [
          -122.770302,
          45.4314
        ]
      },
      "properties": {
        "Name": "Ralph Greene",
        "Height": 67,
        "marker-color": "#9F8170"
      }
    },
    {
      "type": "Feature",
      "geometry": {
        "type": "Point",
        "coordinates": [
          -118.387497,
          33.849201
        ]
      },
      "properties": {
        "Name": "Nick Diaz",
        "Height": 67,
        "marker-color": "#9F8170"
      }
    },
    {
      "type": "Feature",
      "geometry": {
        "type": "Point",
        "coordinates": [
          -71.4133,
          41.823898
        ]
      },
      "properties": {
        "Name": "Brandford Sowah",
        "Height": 67,
        "marker-color": "#9F8170"
      }
    },
    {
      "type": "Feature",
      "geometry": {
        "type": "Point",
        "coordinates": [
          -84.987801,
          32.4608
        ]
      },
      "properties": {
        "Name": "Darren McCray",
        "Height": 67,
        "marker-color": "#9F8170"
      }
    },
    {
      "type": "Feature",
      "geometry": {
        "type": "Point",
        "coordinates": [
          -78.784203,
          35.096401
        ]
      },
      "properties": {
        "Name": "Josh Williams",
        "Height": 67,
        "marker-color": "#9F8170"
      }
    },
    {
      "type": "Feature",
      "geometry": {
        "type": "Point",
        "coordinates": [
          -74.2061,
          41.016701
        ]
      },
      "properties": {
        "Name": "Ross Krautman",
        "Height": 67,
        "marker-color": "#9F8170"
      }
    },
    {
      "type": "Feature",
      "geometry": {
        "type": "Point",
        "coordinates": [
          -86.683296,
          33.6889
        ]
      },
      "properties": {
        "Name": "Lonnie Gosha",
        "Height": 67,
        "marker-color": "#9F8170"
      }
    },
    {
      "type": "Feature",
      "geometry": {
        "type": "Point",
        "coordinates": [
          -80.058296,
          26.775
        ]
      },
      "properties": {
        "Name": "Tommylee Lewis",
        "Height": 67,
        "marker-color": "#9F8170"
      }
    },
    {
      "type": "Feature",
      "geometry": {
        "type": "Point",
        "coordinates": [
          -84.550003,
          33.952499
        ]
      },
      "properties": {
        "Name": "Brandon Lane",
        "Height": 67,
        "marker-color": "#9F8170"
      }
    },
    {
      "type": "Feature",
      "geometry": {
        "type": "Point",
        "coordinates": [
          -95.363098,
          29.7631
        ]
      },
      "properties": {
        "Name": "Jeremy Woodson",
        "Height": 67,
        "marker-color": "#9F8170"
      }
    },
    {
      "type": "Feature",
      "geometry": {
        "type": "Point",
        "coordinates": [
          -77.047203,
          38.804699
        ]
      },
      "properties": {
        "Name": "Anthony Rivers",
        "Height": 67,
        "marker-color": "#9F8170"
      }
    },
    {
      "type": "Feature",
      "geometry": {
        "type": "Point",
        "coordinates": [
          -84.495796,
          39.0914
        ]
      },
      "properties": {
        "Name": "Nathan Rawe",
        "Height": 67,
        "marker-color": "#9F8170"
      }
    },
    {
      "type": "Feature",
      "geometry": {
        "type": "Point",
        "coordinates": [
          -73.454399,
          41.394699
        ]
      },
      "properties": {
        "Name": "Tyler Hancock",
        "Height": 67,
        "marker-color": "#9F8170"
      }
    },
    {
      "type": "Feature",
      "geometry": {
        "type": "Point",
        "coordinates": [
          -90.012497,
          34.988899
        ]
      },
      "properties": {
        "Name": "Jeremy Reed",
        "Height": 67,
        "marker-color": "#9F8170"
      }
    },
    {
      "type": "Feature",
      "geometry": {
        "type": "Point",
        "coordinates": [
          -74.209396,
          40.825802
        ]
      },
      "properties": {
        "Name": "Khalif Herbin",
        "Height": 67,
        "marker-color": "#9F8170"
      }
    },
    {
      "type": "Feature",
      "geometry": {
        "type": "Point",
        "coordinates": [
          -118.352203,
          33.9617
        ]
      },
      "properties": {
        "Name": "Eric Jackson",
        "Height": 67,
        "marker-color": "#9F8170"
      }
    },
    {
      "type": "Feature",
      "geometry": {
        "type": "Point",
        "coordinates": [
          -75.980003,
          36.391701
        ]
      },
      "properties": {
        "Name": "Marquise Grizzle",
        "Height": 67,
        "marker-color": "#9F8170"
      }
    },
    {
      "type": "Feature",
      "geometry": {
        "type": "Point",
        "coordinates": [
          -117.290298,
          34.536098
        ]
      },
      "properties": {
        "Name": "Ayele Forde",
        "Height": 67,
        "marker-color": "#9F8170"
      }
    },
    {
      "type": "Feature",
      "geometry": {
        "type": "Point",
        "coordinates": [
          -82.572502,
          27.521099
        ]
      },
      "properties": {
        "Name": "Marquis Green",
        "Height": 67,
        "marker-color": "#9F8170"
      }
    },
    {
      "type": "Feature",
      "geometry": {
        "type": "Point",
        "coordinates": [
          -87.339996,
          30.608299
        ]
      },
      "properties": {
        "Name": "Qudarius Ford",
        "Height": 67,
        "marker-color": "#9F8170"
      }
    },
    {
      "type": "Feature",
      "geometry": {
        "type": "Point",
        "coordinates": [
          -95.2089,
          29.6908
        ]
      },
      "properties": {
        "Name": "Bo Snelson",
        "Height": 67,
        "marker-color": "#9F8170"
      }
    },
    {
      "type": "Feature",
      "geometry": {
        "type": "Point",
        "coordinates": [
          -80.138901,
          26.823099
        ]
      },
      "properties": {
        "Name": "Jesse Schmitt",
        "Height": 67,
        "marker-color": "#9F8170"
      }
    },
    {
      "type": "Feature",
      "geometry": {
        "type": "Point",
        "coordinates": [
          -80.013298,
          33.195801
        ]
      },
      "properties": {
        "Name": "Tevin Bradshaw",
        "Height": 67,
        "marker-color": "#9F8170"
      }
    },
    {
      "type": "Feature",
      "geometry": {
        "type": "Point",
        "coordinates": [
          -83.045799,
          42.331402
        ]
      },
      "properties": {
        "Name": "Kishon Wilcher",
        "Height": 67,
        "marker-color": "#9F8170"
      }
    },
    {
      "type": "Feature",
      "geometry": {
        "type": "Point",
        "coordinates": [
          -82.101402,
          39.329201
        ]
      },
      "properties": {
        "Name": "Ian Dixon",
        "Height": 67,
        "marker-color": "#9F8170"
      }
    },
    {
      "type": "Feature",
      "geometry": {
        "type": "Point",
        "coordinates": [
          -82.998901,
          39.961102
        ]
      },
      "properties": {
        "Name": "Davon Reed",
        "Height": 67,
        "marker-color": "#9F8170"
      }
    },
    {
      "type": "Feature",
      "geometry": {
        "type": "Point",
        "coordinates": [
          -89.524399,
          37.216702
        ]
      },
      "properties": {
        "Name": "Garett Schaefer",
        "Height": 67,
        "marker-color": "#9F8170"
      }
    },
    {
      "type": "Feature",
      "geometry": {
        "type": "Point",
        "coordinates": [
          -106.663887,
          35.23333
        ]
      },
      "properties": {
        "Name": "Tim Foley",
        "Height": 67,
        "marker-color": "#9F8170"
      }
    },
    {
      "type": "Feature",
      "geometry": {
        "type": "Point",
        "coordinates": [
          -95.824203,
          29.785601
        ]
      },
      "properties": {
        "Name": "Jordan Thompson",
        "Height": 67,
        "marker-color": "#9F8170"
      }
    },
    {
      "type": "Feature",
      "geometry": {
        "type": "Point",
        "coordinates": [
          -75.370796,
          40.625801
        ]
      },
      "properties": {
        "Name": "Devon Jones",
        "Height": 67,
        "marker-color": "#9F8170"
      }
    },
    {
      "type": "Feature",
      "geometry": {
        "type": "Point",
        "coordinates": [
          -80.132202,
          26.1719
        ]
      },
      "properties": {
        "Name": "Bruce Natson",
        "Height": 67,
        "marker-color": "#9F8170"
      }
    },
    {
      "type": "Feature",
      "geometry": {
        "type": "Point",
        "coordinates": [
          -109.706902,
          32.8339
        ]
      },
      "properties": {
        "Name": "Jeremy Fielder",
        "Height": 67,
        "marker-color": "#9F8170"
      }
    },
    {
      "type": "Feature",
      "geometry": {
        "type": "Point",
        "coordinates": [
          -84.017799,
          33.6675
        ]
      },
      "properties": {
        "Name": "Reggie Juin",
        "Height": 67,
        "marker-color": "#9F8170"
      }
    },
    {
      "type": "Feature",
      "geometry": {
        "type": "Point",
        "coordinates": [
          -81.379402,
          28.538099
        ]
      },
      "properties": {
        "Name": "Isaac Rodriguez",
        "Height": 68,
        "marker-color": "#9F8170"
      }
    },
    {
      "type": "Feature",
      "geometry": {
        "type": "Point",
        "coordinates": [
          -85.580002,
          42.201099
        ]
      },
      "properties": {
        "Name": "Jeremy Renda",
        "Height": 68,
        "marker-color": "#9F8170"
      }
    },
    {
      "type": "Feature",
      "geometry": {
        "type": "Point",
        "coordinates": [
          -81.491699,
          31.1497
        ]
      },
      "properties": {
        "Name": "Wes Smith",
        "Height": 68,
        "marker-color": "#9F8170"
      }
    },
    {
      "type": "Feature",
      "geometry": {
        "type": "Point",
        "coordinates": [
          -96.889999,
          32.953601
        ]
      },
      "properties": {
        "Name": "JT Teague",
        "Height": 68,
        "marker-color": "#9F8170"
      }
    },
    {
      "type": "Feature",
      "geometry": {
        "type": "Point",
        "coordinates": [
          -83.898102,
          33.988602
        ]
      },
      "properties": {
        "Name": "DeVonte Lewis",
        "Height": 68,
        "marker-color": "#9F8170"
      }
    },
    {
      "type": "Feature",
      "geometry": {
        "type": "Point",
        "coordinates": [
          -74.865303,
          40.071098
        ]
      },
      "properties": {
        "Name": "William Martin",
        "Height": 68,
        "marker-color": "#9F8170"
      }
    },
    {
      "type": "Feature",
      "geometry": {
        "type": "Point",
        "coordinates": [
          -118.188301,
          33.766899
        ]
      },
      "properties": {
        "Name": "Andrew Abbott",
        "Height": 68,
        "marker-color": "#9F8170"
      }
    },
    {
      "type": "Feature",
      "geometry": {
        "type": "Point",
        "coordinates": [
          -86.811401,
          33.405299
        ]
      },
      "properties": {
        "Name": "Montez Carlton",
        "Height": 68,
        "marker-color": "#9F8170"
      }
    },
    {
      "type": "Feature",
      "geometry": {
        "type": "Point",
        "coordinates": [
          -80.8433,
          35.226898
        ]
      },
      "properties": {
        "Name": "Deyonta Wright",
        "Height": 68,
        "marker-color": "#9F8170"
      }
    },
    {
      "type": "Feature",
      "geometry": {
        "type": "Point",
        "coordinates": [
          -93.736397,
          30.0928
        ]
      },
      "properties": {
        "Name": "DePauldrick Garrett",
        "Height": 68,
        "marker-color": "#9F8170"
      }
    },
    {
      "type": "Feature",
      "geometry": {
        "type": "Point",
        "coordinates": [
          -77.4086,
          38.421902
        ]
      },
      "properties": {
        "Name": "Daniel Rodriguez",
        "Height": 68,
        "marker-color": "#9F8170"
      }
    },
    {
      "type": "Feature",
      "geometry": {
        "type": "Point",
        "coordinates": [
          -96.638603,
          32.912498
        ]
      },
      "properties": {
        "Name": "Trey Johnson",
        "Height": 68,
        "marker-color": "#9F8170"
      }
    },
    {
      "type": "Feature",
      "geometry": {
        "type": "Point",
        "coordinates": [
          -92.019699,
          30.2239
        ]
      },
      "properties": {
        "Name": "Brandon Schmidt",
        "Height": 68,
        "marker-color": "#9F8170"
      }
    },
    {
      "type": "Feature",
      "geometry": {
        "type": "Point",
        "coordinates": [
          -80.073097,
          26.4611
        ]
      },
      "properties": {
        "Name": "Gore Simervil",
        "Height": 68,
        "marker-color": "#9F8170"
      }
    },
    {
      "type": "Feature",
      "geometry": {
        "type": "Point",
        "coordinates": [
          -96.997498,
          32.7458
        ]
      },
      "properties": {
        "Name": "Tyrus McGlothen",
        "Height": 68,
        "marker-color": "#9F8170"
      }
    },
    {
      "type": "Feature",
      "geometry": {
        "type": "Point",
        "coordinates": [
          -76.9394,
          38.624401
        ]
      },
      "properties": {
        "Name": "Nygee Carmichael",
        "Height": 68,
        "marker-color": "#9F8170"
      }
    },
    {
      "type": "Feature",
      "geometry": {
        "type": "Point",
        "coordinates": [
          -92.617798,
          38.150299
        ]
      },
      "properties": {
        "Name": "Jacob Dines",
        "Height": 68,
        "marker-color": "#9F8170"
      }
    },
    {
      "type": "Feature",
      "geometry": {
        "type": "Point",
        "coordinates": [
          -83.860298,
          33.596699
        ]
      },
      "properties": {
        "Name": "Ruben Hatchett",
        "Height": 68,
        "marker-color": "#9F8170"
      }
    },
    {
      "type": "Feature",
      "geometry": {
        "type": "Point",
        "coordinates": [
          -91.022499,
          30.204201
        ]
      },
      "properties": {
        "Name": "Effrem Reed",
        "Height": 68,
        "marker-color": "#9F8170"
      }
    },
    {
      "type": "Feature",
      "geometry": {
        "type": "Point",
        "coordinates": [
          -97.727501,
          31.116899
        ]
      },
      "properties": {
        "Name": "Ja'Quail Haskins",
        "Height": 68,
        "marker-color": "#9F8170"
      }
    },
    {
      "type": "Feature",
      "geometry": {
        "type": "Point",
        "coordinates": [
          -76.7006,
          39.0839
        ]
      },
      "properties": {
        "Name": "Jeffrey Izon",
        "Height": 68,
        "marker-color": "#9F8170"
      }
    },
    {
      "type": "Feature",
      "geometry": {
        "type": "Point",
        "coordinates": [
          -78.457497,
          37.542801
        ]
      },
      "properties": {
        "Name": "Maurice Taylor",
        "Height": 68,
        "marker-color": "#9F8170"
      }
    },
    {
      "type": "Feature",
      "geometry": {
        "type": "Point",
        "coordinates": [
          -77.805801,
          43.119701
        ]
      },