{
  "features": [
    {
      "type": "Feature",
      "geometry": {
        "type": "Point",
        "coordinates": [
          -120.608101,
          37.347801
        ]
      },
      "properties": {
        "Name": "Michael Smith",
        "Height": "3' 0''",
        "Weight": "210 lbs",
        "Birthplace": "Atwater, CA",
        "marker-symbol": "america-football",
        "marker-color": "#9F8170"
      }
    },
    {
      "type": "Feature",
      "geometry": {
        "type": "Point",
        "coordinates": [
          -95.363098,
          29.7631
        ]
      },
      "properties": {
        "Name": "Jayson Carter",
        "Height": "4' 9''",
        "Weight": "135 lbs",
        "Birthplace": "Houston, TX",
        "marker-symbol": "america-football",
        "marker-color": "#9F8170"
      }
    },
    {
      "type": "Feature",
      "geometry": {
        "type": "Point",
        "coordinates": [
          -80.2136,
          26.139999
        ]
      },
      "properties": {
        "Name": "Dareyon Chance",
        "Height": "5' 0''",
        "Weight": "169 lbs",
        "Birthplace": "Lauderhill, FL",
        "marker-symbol": "america-football",
        "marker-color": "#9F8170"
      }
    },
    {
      "type": "Feature",
      "geometry": {
        "type": "Point",
        "coordinates": [
          -88.043098,
          30.694201
        ]
      },
      "properties": {
        "Name": "Reggie Jackson",
        "Height": "5' 1''",
        "Weight": "190 lbs",
        "Birthplace": "Mobile, AL",
        "marker-symbol": "america-football",
        "marker-color": "#9F8170"
      }
    },
    {
      "type": "Feature",
      "geometry": {
        "type": "Point",
        "coordinates": [
          -83.900803,
          33.838902
        ]
      },
      "properties": {
        "Name": "Ean Pemberton",
        "Height": "5' 3''",
        "Weight": "150 lbs",
        "Birthplace": "Loganville, GA",
        "marker-symbol": "america-football",
        "marker-color": "#9F8170"
      }
    },
    {
      "type": "Feature",
      "geometry": {
        "type": "Point",
        "coordinates": [
          -74.044197,
          41.113098
        ]
      },
      "properties": {
        "Name": "Presley Beauvais",
        "Height": "5' 4''",
        "Weight": "150 lbs",
        "Birthplace": "Spring Valley, NY",
        "marker-symbol": "america-football",
        "marker-color": "#9F8170"
      }
    },
    {
      "type": "Feature",
      "geometry": {
        "type": "Point",
        "coordinates": [
          -86.784401,
          36.165798
        ]
      },
      "properties": {
        "Name": "Ryan Berry",
        "Height": "5' 4''",
        "Weight": "175 lbs",
        "Birthplace": "Nashville, TN",
        "marker-symbol": "america-football",
        "marker-color": "#9F8170"
      }
    },
    {
      "type": "Feature",
      "geometry": {
        "type": "Point",
        "coordinates": [
          -80.240303,
          40.6367
        ]
      },
      "properties": {
        "Name": "April Goss",
        "Height": "5' 4''",
        "Weight": "114 lbs",
        "Birthplace": "Aliquippa, PA",
        "marker-symbol": "america-football",
        "marker-color": "#9F8170"
      }
    },
    {
      "type": "Feature",
      "geometry": {
        "type": "Point",
        "coordinates": [
          -81.099998,
          32.083302
        ]
      },
      "properties": {
        "Name": "Antonio Proctor",
        "Height": "5' 4''",
        "Weight": "160 lbs",
        "Birthplace": "Savannah, GA",
        "marker-symbol": "america-football",
        "marker-color": "#9F8170"
      }
    },
    {
      "type": "Feature",
      "geometry": {
        "type": "Point",
        "coordinates": [
          -80.193901,
          25.773899
        ]
      },
      "properties": {
        "Name": "Robert Rose",
        "Height": "5' 4''",
        "Weight": "174 lbs",
        "Birthplace": "Miami, FL",
        "marker-symbol": "america-football",
        "marker-color": "#9F8170"
      }
    },
    {
      "type": "Feature",
      "geometry": {
        "type": "Point",
        "coordinates": [
          -80.013298,
          33.195801
        ]
      },
      "properties": {
        "Name": "Anthony Simmons",
        "Height": "5' 4''",
        "Weight": "156 lbs",
        "Birthplace": "Moncks Corner, SC",
        "marker-symbol": "america-football",
        "marker-color": "#9F8170"
      }
    },
    {
      "type": "Feature",
      "geometry": {
        "type": "Point",
        "coordinates": [
          -86.446701,
          36.388302
        ]
      },
      "properties": {
        "Name": "Corey Alexander",
        "Height": "5' 5''",
        "Weight": "161 lbs",
        "Birthplace": "Gallatin, TN",
        "marker-symbol": "america-football",
        "marker-color": "#9F8170"
      }
    },
    {
      "type": "Feature",
      "geometry": {
        "type": "Point",
        "coordinates": [
          -96.625,
          32.3292
        ]
      },
      "properties": {
        "Name": "Fred Carroll",
        "Height": "5' 5''",
        "Weight": "155 lbs",
        "Birthplace": "Ennis, TX",
        "marker-symbol": "america-football",
        "marker-color": "#9F8170"
      }
    },
    {
      "type": "Feature",
      "geometry": {
        "type": "Point",
        "coordinates": [
          -73.634697,
          40.7267
        ]
      },
      "properties": {
        "Name": "Nick DiFilippi",
        "Height": "5' 5''",
        "Weight": "155 lbs",
        "Birthplace": "Garden City, NY",
        "marker-symbol": "america-football",
        "marker-color": "#9F8170"
      }
    },
    {
      "type": "Feature",
      "geometry": {
        "type": "Point",
        "coordinates": [
          -86.158096,
          39.768299
        ]
      },
      "properties": {
        "Name": "Dwayne Donigan",
        "Height": "5' 5''",
        "Weight": "178 lbs",
        "Birthplace": "Indianapolis, IN",
        "marker-symbol": "america-football",
        "marker-color": "#9F8170"
      }
    },
    {
      "type": "Feature",
      "geometry": {
        "type": "Point",
        "coordinates": [
          -97.742798,
          30.266899
        ]
      },
      "properties": {
        "Name": "VanLawrance Franks",
        "Height": "5' 5''",
        "Weight": "135 lbs",
        "Birthplace": "Austin, TX",
        "marker-symbol": "america-football",
        "marker-color": "#9F8170"
      }
    },
    {
      "type": "Feature",
      "geometry": {
        "type": "Point",
        "coordinates": [
          -117.8992,
          33.916698
        ]
      },
      "properties": {
        "Name": "Michael Frisina",
        "Height": "5' 5''",
        "Weight": "162 lbs",
        "Birthplace": "Brea, CA",
        "marker-symbol": "america-football",
        "marker-color": "#9F8170"
      }
    },
    {
      "type": "Feature",
      "geometry": {
        "type": "Point",
        "coordinates": [
          -80.252998,
          25.904551
        ]
      },
      "properties": {
        "Name": "Derrick Hopkins",
        "Height": "5' 5''",
        "Weight": "158 lbs",
        "Birthplace": "Opa Locka, FL",
        "marker-symbol": "america-football",
        "marker-color": "#9F8170"
      }
    },
    {
      "type": "Feature",
      "geometry": {
        "type": "Point",
        "coordinates": [
          -117.395302,
          33.9533
        ]
      },
      "properties": {
        "Name": "Josh Ivery",
        "Height": "5' 5''",
        "Weight": "150 lbs",
        "Birthplace": "Riverside, CA",
        "marker-symbol": "america-football",
        "marker-color": "#9F8170"
      }
    },
    {
      "type": "Feature",
      "geometry": {
        "type": "Point",
        "coordinates": [
          -83.900803,
          33.838902
        ]
      },
      "properties": {
        "Name": "George Johnson",
        "Height": "5' 5''",
        "Weight": "170 lbs",
        "Birthplace": "Loganville, GA",
        "marker-symbol": "america-football",
        "marker-color": "#9F8170"
      }
    },
    {
      "type": "Feature",
      "geometry": {
        "type": "Point",
        "coordinates": [
          -75.320602,
          39.930599
        ]
      },
      "properties": {
        "Name": "Steve Jones",
        "Height": "5' 5''",
        "Weight": "175 lbs",
        "Birthplace": "Springfield, PA",
        "marker-symbol": "america-football",
        "marker-color": "#9F8170"
      }
    },
    {
      "type": "Feature",
      "geometry": {
        "type": "Point",
        "coordinates": [
          -96.800003,
          32.783298
        ]
      },
      "properties": {
        "Name": "Billy Morgan",
        "Height": "5' 5''",
        "Weight": "150 lbs",
        "Birthplace": "Dallas, TX",
        "marker-symbol": "america-football",
        "marker-color": "#9F8170"
      }
    },
    {
      "type": "Feature",
      "geometry": {
        "type": "Point",
        "coordinates": [
          -84.170303,
          33.808102
        ]
      },
      "properties": {
        "Name": "Dre Nelson",
        "Height": "5' 5''",
        "Weight": "170 lbs",
        "Birthplace": "Stone Mountain, GA",
        "marker-symbol": "america-football",
        "marker-color": "#9F8170"
      }
    },
    {
      "type": "Feature",
      "geometry": {
        "type": "Point",
        "coordinates": [
          -85.759399,
          38.2542
        ]
      },
      "properties": {
        "Name": "Tim Phillips",
        "Height": "5' 5''",
        "Weight": "166 lbs",
        "Birthplace": "Louisville, KY",
        "marker-symbol": "america-football",
        "marker-color": "#9F8170"
      }
    },
    {
      "type": "Feature",
      "geometry": {
        "type": "Point",
        "coordinates": [
          -84.217201,
          33.854401
        ]
      },
      "properties": {
        "Name": "Devin Scott",
        "Height": "5' 5''",
        "Weight": "176 lbs",
        "Birthplace": "Tucker, GA",
        "marker-symbol": "america-football",
        "marker-color": "#9F8170"
      }
    },
    {
      "type": "Feature",
      "geometry": {
        "type": "Point",
        "coordinates": [
          -82.9039,
          32.540298
        ]
      },
      "properties": {
        "Name": "Brian Wilcher",
        "Height": "5' 5''",
        "Weight": "178 lbs",
        "Birthplace": "Dublin, GA",
        "marker-symbol": "america-football",
        "marker-color": "#9F8170"
      }
    },
    {
      "type": "Feature",
      "geometry": {
        "type": "Point",
        "coordinates": [
          -86.608902,
          33.619701
        ]
      },
      "properties": {
        "Name": "Jake Wilks",
        "Height": "5' 5''",
        "Weight": "170 lbs",
        "Birthplace": "Trussville, AL",
        "marker-symbol": "america-football",
        "marker-color": "#9F8170"
      }
    },
    {
      "type": "Feature",
      "geometry": {
        "type": "Point",
        "coordinates": [
          -73.245796,
          40.724998
        ]
      },
      "properties": {
        "Name": "Karl Allison",
        "Height": "5' 6''",
        "Weight": "175 lbs",
        "Birthplace": "Bay Shore, NY",
        "marker-symbol": "america-football",
        "marker-color": "#9F8170"
      }
    },
    {
      "type": "Feature",
      "geometry": {
        "type": "Point",
        "coordinates": [
          -99.141968,
          39.527596
        ]
      },
      "properties": {
        "Name": "Matt Amicone",
        "Height": "5' 6''",
        "Weight": "170 lbs",
        "Birthplace": "",
        "marker-symbol": "america-football",
        "marker-color": "#9F8170"
      }
    },
    {
      "type": "Feature",
      "geometry": {
        "type": "Point",
        "coordinates": [
          -98.493301,
          29.423901
        ]
      },
      "properties": {
        "Name": "Brandon Armstrong",
        "Height": "5' 6''",
        "Weight": "160 lbs",
        "Birthplace": "San Antonio, TX",
        "marker-symbol": "america-football",
        "marker-color": "#9F8170"
      }
    },
    {
      "type": "Feature",
      "geometry": {
        "type": "Point",
        "coordinates": [
          -83.045799,
          42.331402
        ]
      },
      "properties": {
        "Name": "Kenyarda Bates",
        "Height": "5' 6''",
        "Weight": "162 lbs",
        "Birthplace": "Detroit, MI",
        "marker-symbol": "america-football",
        "marker-color": "#9F8170"
      }
    },
    {
      "type": "Feature",
      "geometry": {
        "type": "Point",
        "coordinates": [
          -98.069702,
          40.020802
        ]
      },
      "properties": {
        "Name": "Ty Betka",
        "Height": "5' 6''",
        "Weight": "154 lbs",
        "Birthplace": "Superior, NE",
        "marker-symbol": "america-football",
        "marker-color": "#9F8170"
      }
    },
    {
      "type": "Feature",
      "geometry": {
        "type": "Point",
        "coordinates": [
          -106.650597,
          35.0844
        ]
      },
      "properties": {
        "Name": "JP Bolwahnn",
        "Height": "5' 6''",
        "Weight": "189 lbs",
        "Birthplace": "Albuquerque, NM",
        "marker-symbol": "america-football",
        "marker-color": "#9F8170"
      }
    },
    {
      "type": "Feature",
      "geometry": {
        "type": "Point",
        "coordinates": [
          -86.802498,
          33.520598
        ]
      },
      "properties": {
        "Name": "Bradley Bostick",
        "Height": "5' 6''",
        "Weight": "155 lbs",
        "Birthplace": "Birmingham, AL",
        "marker-symbol": "america-football",
        "marker-color": "#9F8170"
      }
    },
    {
      "type": "Feature",
      "geometry": {
        "type": "Point",
        "coordinates": [
          -86.5186,
          35.9828
        ]
      },
      "properties": {
        "Name": "Dakota Brown",
        "Height": "5' 6''",
        "Weight": "173 lbs",
        "Birthplace": "Smyrna, TN",
        "marker-symbol": "america-football",
        "marker-color": "#9F8170"
      }
    },
    {
      "type": "Feature",
      "geometry": {
        "type": "Point",
        "coordinates": [
          -74.033096,
          40.9911
        ]
      },
      "properties": {
        "Name": "Chris Burrell",
        "Height": "5' 6''",
        "Weight": "162 lbs",
        "Birthplace": "Westwood, NJ",
        "marker-symbol": "america-football",
        "marker-color": "#9F8170"
      }
    },
    {
      "type": "Feature",
      "geometry": {
        "type": "Point",
        "coordinates": [
          -90.0625,
          29.957079
        ]
      },
      "properties": {
        "Name": "Anthony Cain",
        "Height": "5' 6''",
        "Weight": "173 lbs",
        "Birthplace": "New Orleans, LA",
        "marker-symbol": "america-football",
        "marker-color": "#9F8170"
      }
    },
    {
      "type": "Feature",
      "geometry": {
        "type": "Point",
        "coordinates": [
          -76.345596,
          37.029701
        ]
      },
      "properties": {
        "Name": "Chris Caver",
        "Height": "5' 6''",
        "Weight": "170 lbs",
        "Birthplace": "Hampton, VA",
        "marker-symbol": "america-football",
        "marker-color": "#9F8170"
      }
    },
    {
      "type": "Feature",
      "geometry": {
        "type": "Point",
        "coordinates": [
          -82.328102,
          28.239401
        ]
      },
      "properties": {
        "Name": "Jordan Crockett",
        "Height": "5' 6''",
        "Weight": "163 lbs",
        "Birthplace": "Wesley Chapel, FL",
        "marker-symbol": "america-football",
        "marker-color": "#9F8170"
      }
    },
    {
      "type": "Feature",
      "geometry": {
        "type": "Point",
        "coordinates": [
          -90.551399,
          33.7258
        ]
      },
      "properties": {
        "Name": "Jo'Nathan Davis",
        "Height": "5' 6''",
        "Weight": "249 lbs",
        "Birthplace": "Ruleville, MS",
        "marker-symbol": "america-football",
        "marker-color": "#9F8170"
      }
    },
    {
      "type": "Feature",
      "geometry": {
        "type": "Point",
        "coordinates": [
          -118.135803,
          34.698101
        ]
      },
      "properties": {
        "Name": "Roosevelt Davis",
        "Height": "5' 6''",
        "Weight": "155 lbs",
        "Birthplace": "Lancaster, CA",
        "marker-symbol": "america-football",
        "marker-color": "#9F8170"
      }
    },
    {
      "type": "Feature",
      "geometry": {
        "type": "Point",
        "coordinates": [
          -81.566101,
          41.415298
        ]
      },
      "properties": {
        "Name": "Armand Dehaney",
        "Height": "5' 6''",
        "Weight": "167 lbs",
        "Birthplace": "Maple Heights, OH",
        "marker-symbol": "america-football",
        "marker-color": "#9F8170"
      }
    },
    {
      "type": "Feature",
      "geometry": {
        "type": "Point",
        "coordinates": [
          -73.408302,
          41.1175
        ]
      },
      "properties": {
        "Name": "Marcus Dormevil",
        "Height": "5' 6''",
        "Weight": "175 lbs",
        "Birthplace": "Norwalk, CT",
        "marker-symbol": "america-football",
        "marker-color": "#9F8170"
      }
    },
    {
      "type": "Feature",
      "geometry": {
        "type": "Point",
        "coordinates": [
          -117.147499,
          33.493599
        ]
      },
      "properties": {
        "Name": "Griffin Fauntleroy",
        "Height": "5' 6''",
        "Weight": "185 lbs",
        "Birthplace": "Temecula, CA",
        "marker-symbol": "america-football",
        "marker-color": "#9F8170"
      }
    },
    {
      "type": "Feature",
      "geometry": {
        "type": "Point",
        "coordinates": [
          -81.706703,
          30.1658
        ]
      },
      "properties": {
        "Name": "Albrey Felder",
        "Height": "5' 6''",
        "Weight": "176 lbs",
        "Birthplace": "Orange Park, FL",
        "marker-symbol": "america-football",
        "marker-color": "#9F8170"
      }
    },
    {
      "type": "Feature",
      "geometry": {
        "type": "Point",
        "coordinates": [
          -93.139999,
          32.961899
        ]
      },
      "properties": {
        "Name": "Ronnie Fields",
        "Height": "5' 6''",
        "Weight": "155 lbs",
        "Birthplace": "Haynesville, LA",
        "marker-symbol": "america-football",
        "marker-color": "#9F8170"
      }
    },
    {
      "type": "Feature",
      "geometry": {
        "type": "Point",
        "coordinates": [
          -96.5989,
          32.7667
        ]
      },
      "properties": {
        "Name": "Jakeem Grant",
        "Height": "5' 6''",
        "Weight": "163 lbs",
        "Birthplace": "Mesquite, TX",
        "marker-symbol": "america-football",
        "marker-color": "#9F8170"
      }
    },
    {
      "type": "Feature",
      "geometry": {
        "type": "Point",
        "coordinates": [
          -95.824203,
          29.785601
        ]
      },
      "properties": {
        "Name": "Leekus Green",
        "Height": "5' 6''",
        "Weight": "165 lbs",
        "Birthplace": "Katy, TX",
        "marker-symbol": "america-football",
        "marker-color": "#9F8170"
      }
    },
    {
      "type": "Feature",
      "geometry": {
        "type": "Point",
        "coordinates": [
          -82.458603,
          27.947201
        ]
      },
      "properties": {
        "Name": "Deuce Gruden",
        "Height": "5' 6''",
        "Weight": "170 lbs",
        "Birthplace": "Tampa, FL",
        "marker-symbol": "america-football",
        "marker-color": "#9F8170"
      }
    },
    {
      "type": "Feature",
      "geometry": {
        "type": "Point",
        "coordinates": [
          -76.641403,
          39.499699
        ]
      },
      "properties": {
        "Name": "Peter Hajimihalis",
        "Height": "5' 6''",
        "Weight": "180 lbs",
        "Birthplace": "Hunt Valley, MD",
        "marker-symbol": "america-football",
        "marker-color": "#9F8170"
      }
    },
    {
      "type": "Feature",
      "geometry": {
        "type": "Point",
        "coordinates": [
          -84.071404,
          34.051399
        ]
      },
      "properties": {
        "Name": "Ahmaad Harris",
        "Height": "5' 6''",
        "Weight": "155 lbs",
        "Birthplace": "Suwanee, GA",
        "marker-symbol": "america-football",
        "marker-color": "#9F8170"
      }
    },
    {
      "type": "Feature",
      "geometry": {
        "type": "Point",
        "coordinates": [
          -95.677803,
          39.048302
        ]
      },
      "properties": {
        "Name": "Cody Harrison",
        "Height": "5' 6''",
        "Weight": "158 lbs",
        "Birthplace": "Topeka, KS",
        "marker-symbol": "america-football",
        "marker-color": "#9F8170"
      }
    },
    {
      "type": "Feature",
      "geometry": {
        "type": "Point",
        "coordinates": [
          -82.118103,
          32.0867
        ]
      },
      "properties": {
        "Name": "Brandon Harton",
        "Height": "5' 6''",
        "Weight": "175 lbs",
        "Birthplace": "Reidsville, GA",
        "marker-symbol": "america-football",
        "marker-color": "#9F8170"
      }
    },
    {
      "type": "Feature",
      "geometry": {
        "type": "Point",
        "coordinates": [
          -85.660301,
          30.1586
        ]
      },
      "properties": {
        "Name": "Jeremy Hester",
        "Height": "5' 6''",
        "Weight": "176 lbs",
        "Birthplace": "Panama City, FL",
        "marker-symbol": "america-football",
        "marker-color": "#9F8170"
      }
    },
    {
      "type": "Feature",
      "geometry": {
        "type": "Point",
        "coordinates": [
          -95.114403,
          29.775801
        ]
      },
      "properties": {
        "Name": "Justin Hicks",
        "Height": "5' 6''",
        "Weight": "191 lbs",
        "Birthplace": "Channelview, TX",
        "marker-symbol": "america-football",
        "marker-color": "#9F8170"
      }
    },
    {
      "type": "Feature",
      "geometry": {
        "type": "Point",
        "coordinates": [
          -90.0625,
          29.957079
        ]
      },
      "properties": {
        "Name": "Dalton Hilliard Jr.",
        "Height": "5' 6''",
        "Weight": "200 lbs",
        "Birthplace": "New Orleans, LA",
        "marker-symbol": "america-football",
        "marker-color": "#9F8170"
      }
    },
    {
      "type": "Feature",
      "geometry": {
        "type": "Point",
        "coordinates": [
          -73.051903,
          41.558102
        ]
      },
      "properties": {
        "Name": "Larry Hoffler",
        "Height": "5' 6''",
        "Weight": "165 lbs",
        "Birthplace": "Waterbury, CT",
        "marker-symbol": "america-football",
        "marker-color": "#9F8170"
      }
    },
    {
      "type": "Feature",
      "geometry": {
        "type": "Point",
        "coordinates": [
          -85.080002,
          43.519699
        ]
      },
      "properties": {
        "Name": "Jake Hutson",
        "Height": "5' 6''",
        "Weight": "181 lbs",
        "Birthplace": "Blanchard, MI",
        "marker-symbol": "america-football",
        "marker-color": "#9F8170"
      }
    },
    {
      "type": "Feature",
      "geometry": {
        "type": "Point",
        "coordinates": [
          -82.554199,
          35.6008
        ]
      },
      "properties": {
        "Name": "Martese Jackson",
        "Height": "5' 6''",
        "Weight": "165 lbs",
        "Birthplace": "Asheville, NC",
        "marker-symbol": "america-football",
        "marker-color": "#9F8170"
      }
    },
    {
      "type": "Feature",
      "geometry": {
        "type": "Point",
        "coordinates": [
          -71.201401,
          42.7883
        ]
      },
      "properties": {
        "Name": "Max Jacques",
        "Height": "5' 6''",
        "Weight": "182 lbs",
        "Birthplace": "Salem, NH",
        "marker-symbol": "america-football",
        "marker-color": "#9F8170"
      }
    },
    {
      "type": "Feature",
      "geometry": {
        "type": "Point",
        "coordinates": [
          -117.434196,
          34.092201
        ]
      },
      "properties": {
        "Name": "Eugene Johnson",
        "Height": "5' 6''",
        "Weight": "140 lbs",
        "Birthplace": "Fontana, CA",
        "marker-symbol": "america-football",
        "marker-color": "#9F8170"
      }
    },
    {
      "type": "Feature",
      "geometry": {
        "type": "Point",
        "coordinates": [
          -86.861702,
          33.2033
        ]
      },
      "properties": {
        "Name": "Jeremy Jones",
        "Height": "5' 6''",
        "Weight": "175 lbs",
        "Birthplace": "Maylene, AL",
        "marker-symbol": "america-football",
        "marker-color": "#9F8170"
      }
    },
    {
      "type": "Feature",
      "geometry": {
        "type": "Point",
        "coordinates": [
          -71.316704,
          42.633301
        ]
      },
      "properties": {
        "Name": "Jet Kollie",
        "Height": "5' 6''",
        "Weight": "160 lbs",
        "Birthplace": "Lowell, MA",
        "marker-symbol": "america-football",
        "marker-color": "#9F8170"
      }
    },
    {
      "type": "Feature",
      "geometry": {
        "type": "Point",
        "coordinates": [
          -96.087502,
          30.3878
        ]
      },
      "properties": {
        "Name": "Gaston Lamascus",
        "Height": "5' 6''",
        "Weight": "182 lbs",
        "Birthplace": "Navasota, TX",
        "marker-symbol": "america-football",
        "marker-color": "#9F8170"
      }
    },
    {
      "type": "Feature",
      "geometry": {
        "type": "Point",
        "coordinates": [
          -76.345596,
          37.029701
        ]
      },
      "properties": {
        "Name": "Kyle Lawrence",
        "Height": "5' 6''",
        "Weight": "155 lbs",
        "Birthplace": "Hampton, VA",
        "marker-symbol": "america-football",
        "marker-color": "#9F8170"
      }
    },
    {
      "type": "Feature",
      "geometry": {
        "type": "Point",
        "coordinates": [
          -121.850601,
          36.611099
        ]
      },
      "properties": {
        "Name": "Poppy Livers",
        "Height": "5' 6''",
        "Weight": "155 lbs",
        "Birthplace": "Seaside, CA",
        "marker-symbol": "america-football",
        "marker-color": "#9F8170"
      }
    },
    {
      "type": "Feature",
      "geometry": {
        "type": "Point",
        "coordinates": [
          -82.458603,
          27.947201
        ]
      },
      "properties": {
        "Name": "Robert Lohnes",
        "Height": "5' 6''",
        "Weight": "140 lbs",
        "Birthplace": "Tampa, FL",
        "marker-symbol": "america-football",
        "marker-color": "#9F8170"
      }
    },
    {
      "type": "Feature",
      "geometry": {
        "type": "Point",
        "coordinates": [
          -119.812798,
          39.529701
        ]
      },
      "properties": {
        "Name": "Anthony Martinez",
        "Height": "5' 6''",
        "Weight": "175 lbs",
        "Birthplace": "Reno, NV",
        "marker-symbol": "america-football",
        "marker-color": "#9F8170"
      }
    },
    {
      "type": "Feature",
      "geometry": {
        "type": "Point",
        "coordinates": [
          -84.3881,
          33.748901
        ]
      },
      "properties": {
        "Name": "Sam McNearney",
        "Height": "5' 6''",
        "Weight": "165 lbs",
        "Birthplace": "Atlanta, GA",
        "marker-symbol": "america-football",
        "marker-color": "#9F8170"
      }
    },
    {
      "type": "Feature",
      "geometry": {
        "type": "Point",
        "coordinates": [
          -97.315002,
          30.1103
        ]
      },
      "properties": {
        "Name": "Josiah Monroe",
        "Height": "5' 6''",
        "Weight": "170 lbs",
        "Birthplace": "Bastrop, TX",
        "marker-symbol": "america-football",
        "marker-color": "#9F8170"
      }
    },
    {
      "type": "Feature",
      "geometry": {
        "type": "Point",
        "coordinates": [
          -122.038902,
          38.249401
        ]
      },
      "properties": {
        "Name": "Jordan Morrow",
        "Height": "5' 6''",
        "Weight": "160 lbs",
        "Birthplace": "Fairfield, CA",
        "marker-symbol": "america-football",
        "marker-color": "#9F8170"
      }
    },
    {
      "type": "Feature",
      "geometry": {
        "type": "Point",
        "coordinates": [
          -80.193901,
          25.773899
        ]
      },
      "properties": {
        "Name": "Emilio Nadelman",
        "Height": "5' 6''",
        "Weight": "167 lbs",
        "Birthplace": "Miami, FL",
        "marker-symbol": "america-football",
        "marker-color": "#9F8170"
      }
    },
    {
      "type": "Feature",
      "geometry": {
        "type": "Point",
        "coordinates": [
          -158.006439,
          21.383556
        ]
      },
      "properties": {
        "Name": "Irvin Nguyen",
        "Height": "5' 6''",
        "Weight": "190 lbs",
        "Birthplace": "Waipahu, HI",
        "marker-symbol": "america-football",
        "marker-color": "#9F8170"
      }
    },
    {
      "type": "Feature",
      "geometry": {
        "type": "Point",
        "coordinates": [
          -117.229721,
          33.9375
        ]
      },
      "properties": {
        "Name": "Jonathan Norton",
        "Height": "5' 6''",
        "Weight": "173 lbs",
        "Birthplace": "Moreno Valley, CA",
        "marker-symbol": "america-football",
        "marker-color": "#9F8170"
      }
    },
    {
      "type": "Feature",
      "geometry": {
        "type": "Point",
        "coordinates": [
          -76.9394,
          38.624401
        ]
      },
      "properties": {
        "Name": "Emmanuel Onakoya",
        "Height": "5' 6''",
        "Weight": "184 lbs",
        "Birthplace": "Waldorf, MD",
        "marker-symbol": "america-football",
        "marker-color": "#9F8170"
      }
    },
    {
      "type": "Feature",
      "geometry": {
        "type": "Point",
        "coordinates": [
          -82.113098,
          28.018299
        ]
      },
      "properties": {
        "Name": "Daz'mond Patterson",
        "Height": "5' 6''",
        "Weight": "178 lbs",
        "Birthplace": "Plant City, FL",
        "marker-symbol": "america-football",
        "marker-color": "#9F8170"
      }
    },
    {
      "type": "Feature",
      "geometry": {
        "type": "Point",
        "coordinates": [
          -80.230797,
          26.708099
        ]
      },
      "properties": {
        "Name": "Trey Pendergrass",
        "Height": "5' 6''",
        "Weight": "155 lbs",
        "Birthplace": "Royal Palm Beach, FL",
        "marker-symbol": "america-football",
        "marker-color": "#9F8170"
      }
    },
    {
      "type": "Feature",
      "geometry": {
        "type": "Point",
        "coordinates": [
          -112.444702,
          42.871399
        ]
      },
      "properties": {
        "Name": "Erich Pew",
        "Height": "5' 6''",
        "Weight": "158 lbs",
        "Birthplace": "Pocatello, ID",
        "marker-symbol": "america-football",
        "marker-color": "#9F8170"
      }
    },
    {
      "type": "Feature",
      "geometry": {
        "type": "Point",
        "coordinates": [
          -79.792198,
          36.072498
        ]
      },
      "properties": {
        "Name": "Thuc Phan",
        "Height": "5' 6''",
        "Weight": "160 lbs",
        "Birthplace": "Greensboro, NC",
        "marker-symbol": "america-football",
        "marker-color": "#9F8170"
      }
    },
    {
      "type": "Feature",
      "geometry": {
        "type": "Point",
        "coordinates": [
          -79.996101,
          40.440601
        ]
      },
      "properties": {
        "Name": "William Quarles",
        "Height": "5' 6''",
        "Weight": "170 lbs",
        "Birthplace": "Pittsburgh, PA",
        "marker-symbol": "america-football",
        "marker-color": "#9F8170"
      }
    },
    {
      "type": "Feature",
      "geometry": {
        "type": "Point",
        "coordinates": [
          -97.337196,
          37.6922
        ]
      },
      "properties": {
        "Name": "DeMarcus Robinson",
        "Height": "5' 6''",
        "Weight": "206 lbs",
        "Birthplace": "Wichita, KS",
        "marker-symbol": "america-football",
        "marker-color": "#9F8170"
      }
    },
    {
      "type": "Feature",
      "geometry": {
        "type": "Point",
        "coordinates": [
          -74.245003,
          40.621899
        ]
      },
      "properties": {
        "Name": "Kevin Rodriguez",
        "Height": "5' 6''",
        "Weight": "189 lbs",
        "Birthplace": "Linden, NJ",
        "marker-symbol": "america-football",
        "marker-color": "#9F8170"
      }
    },
    {
      "type": "Feature",
      "geometry": {
        "type": "Point",
        "coordinates": [
          -106.777802,
          32.312199
        ]
      },
      "properties": {
        "Name": "Jason Sandoval",
        "Height": "5' 6''",
        "Weight": "160 lbs",
        "Birthplace": "Las Cruces, NM",
        "marker-symbol": "america-football",
        "marker-color": "#9F8170"
      }
    },
    {
      "type": "Feature",
      "geometry": {
        "type": "Point",
        "coordinates": [
          -80.665604,
          26.8197
        ]
      },
      "properties": {
        "Name": "Vincent Smith",
        "Height": "5' 6''",
        "Weight": "175 lbs",
        "Birthplace": "Pahokee, FL",
        "marker-symbol": "america-football",
        "marker-color": "#9F8170"
      }
    },
    {
      "type": "Feature",
      "geometry": {
        "type": "Point",
        "coordinates": [
          -96.889999,
          32.953601
        ]
      },
      "properties": {
        "Name": "Darius Staten",
        "Height": "5' 6''",
        "Weight": "196 lbs",
        "Birthplace": "Carrollton, TX",
        "marker-symbol": "america-football",
        "marker-color": "#9F8170"
      }
    },
    {
      "type": "Feature",
      "geometry": {
        "type": "Point",
        "coordinates": [
          -81.566101,
          41.415298
        ]
      },
      "properties": {
        "Name": "Andre Stubbs",
        "Height": "5' 6''",
        "Weight": "160 lbs",
        "Birthplace": "Maple Heights, OH",
        "marker-symbol": "america-football",
        "marker-color": "#9F8170"
      }
    },
    {
      "type": "Feature",
      "geometry": {
        "type": "Point",
        "coordinates": [
          -79.931099,
          32.776401
        ]
      },
      "properties": {
        "Name": "Adrian Sullivan",
        "Height": "5' 6''",
        "Weight": "165 lbs",
        "Birthplace": "Charleston, SC",
        "marker-symbol": "america-football",
        "marker-color": "#9F8170"
      }
    },
    {
      "type": "Feature",
      "geometry": {
        "type": "Point",
        "coordinates": [
          -79.996101,
          40.440601
        ]
      },
      "properties": {
        "Name": "Jake Szolis",
        "Height": "5' 6''",
        "Weight": "162 lbs",
        "Birthplace": "Pittsburgh, PA",
        "marker-symbol": "america-football",
        "marker-color": "#9F8170"
      }
    },
    {
      "type": "Feature",
      "geometry": {
        "type": "Point",
        "coordinates": [
          -91.154404,
          30.4506
        ]
      },
      "properties": {
        "Name": "Nico Talbert",
        "Height": "5' 6''",
        "Weight": "159 lbs",
        "Birthplace": "Baton Rouge, LA",
        "marker-symbol": "america-football",
        "marker-color": "#9F8170"
      }
    },
    {
      "type": "Feature",
      "geometry": {
        "type": "Point",
        "coordinates": [
          -96.800003,
          32.783298
        ]
      },
      "properties": {
        "Name": "Terrence Tusan",
        "Height": "5' 6''",
        "Weight": "150 lbs",
        "Birthplace": "Dallas, TX",
        "marker-symbol": "america-football",
        "marker-color": "#9F8170"
      }
    },
    {
      "type": "Feature",
      "geometry": {
        "type": "Point",
        "coordinates": [
          -97.320602,
          32.725299
        ]
      },
      "properties": {
        "Name": "Brian Vaughn",
        "Height": "5' 6''",
        "Weight": "185 lbs",
        "Birthplace": "Fort Worth, TX",
        "marker-symbol": "america-football",
        "marker-color": "#9F8170"
      }
    },
    {
      "type": "Feature",
      "geometry": {
        "type": "Point",
        "coordinates": [
          -92.419197,
          30.6336
        ]
      },
      "properties": {
        "Name": "Robert Walker",
        "Height": "5' 6''",
        "Weight": "191 lbs",
        "Birthplace": "Mamou, LA",
        "marker-symbol": "america-football",
        "marker-color": "#9F8170"
      }
    },
    {
      "type": "Feature",
      "geometry": {
        "type": "Point",
        "coordinates": [
          -80.581902,
          35.569199
        ]
      },
      "properties": {
        "Name": "Shaun Warren",
        "Height": "5' 6''",
        "Weight": "170 lbs",
        "Birthplace": "China Grove, NC",
        "marker-symbol": "america-football",
        "marker-color": "#9F8170"
      }
    },
    {
      "type": "Feature",
      "geometry": {
        "type": "Point",
        "coordinates": [
          -115.136398,
          36.174999
        ]
      },
      "properties": {
        "Name": "Marquon Webster",
        "Height": "5' 6''",
        "Weight": "160 lbs",
        "Birthplace": "Las Vegas, NV",
        "marker-symbol": "america-football",
        "marker-color": "#9F8170"
      }
    },
    {
      "type": "Feature",
      "geometry": {
        "type": "Point",
        "coordinates": [
          -79.7883,
          40.421101
        ]
      },
      "properties": {
        "Name": "Brian Williams",
        "Height": "5' 6''",
        "Weight": "158 lbs",
        "Birthplace": "Monroeville, PA",
        "marker-symbol": "america-football",
        "marker-color": "#9F8170"
      }
    },
    {
      "type": "Feature",
      "geometry": {
        "type": "Point",
        "coordinates": [
          -95.416901,
          30.0797
        ]
      },
      "properties": {
        "Name": "Shane Williams-Rhodes",
        "Height": "5' 6''",
        "Weight": "154 lbs",
        "Birthplace": "Spring, TX",
        "marker-symbol": "america-football",
        "marker-color": "#9F8170"
      }
    },
    {
      "type": "Feature",
      "geometry": {
        "type": "Point",
        "coordinates": [
          -90.153061,
          30.846939
        ]
      },
      "properties": {
        "Name": "Reggie Wilson",
        "Height": "5' 6''",
        "Weight": "180 lbs",
        "Birthplace": "Franklinton, LA",
        "marker-symbol": "america-football",
        "marker-color": "#9F8170"
      }
    },
    {
      "type": "Feature",
      "geometry": {
        "type": "Point",
        "coordinates": [
          -84.3881,
          33.748901
        ]
      },
      "properties": {
        "Name": "Ralph Abernathy",
        "Height": "5' 7''",
        "Weight": "161 lbs",
        "Birthplace": "Atlanta, GA",
        "marker-symbol": "america-football",
        "marker-color": "#9F8170"
      }
    },
    {
      "type": "Feature",
      "geometry": {
        "type": "Point",
        "coordinates": [
          -112.073303,
          33.448299
        ]
      },
      "properties": {
        "Name": "Ademola Adeniran",
        "Height": "5' 7''",
        "Weight": "160 lbs",
        "Birthplace": "Phoenix, AZ",
        "marker-symbol": "america-football",
        "marker-color": "#9F8170"
      }
    },
    {
      "type": "Feature",
      "geometry": {
        "type": "Point",
        "coordinates": [
          -104.482498,
          39.0289
        ]
      },
      "properties": {
        "Name": "Brandon Albright",
        "Height": "5' 7''",
        "Weight": "175 lbs",
        "Birthplace": "Peyton, CO",
        "marker-symbol": "america-football",
        "marker-color": "#9F8170"
      }
    },
    {
      "type": "Feature",
      "geometry": {
        "type": "Point",
        "coordinates": [
          -81.872498,
          26.640301
        ]
      },
      "properties": {
        "Name": "Mike Anderson",
        "Height": "5' 7''",
        "Weight": "170 lbs",
        "Birthplace": "Fort Myers, FL",
        "marker-symbol": "america-football",
        "marker-color": "#9F8170"
      }
    },
    {
      "type": "Feature",
      "geometry": {
        "type": "Point",
        "coordinates": [
          -158.00444,
          21.31246
        ]
      },
      "properties": {
        "Name": "Samson Anguay",
        "Height": "5' 7''",
        "Weight": "160 lbs",
        "Birthplace": "Ewa Beach, HI",
        "marker-symbol": "america-football",
        "marker-color": "#9F8170"
      }
    },
    {
      "type": "Feature",
      "geometry": {
        "type": "Point",
        "coordinates": [
          -118.471107,
          34.423328
        ]
      },
      "properties": {
        "Name": "Max Archuleta",
        "Height": "5' 7''",
        "Weight": "165 lbs",
        "Birthplace": "Canyon Country, CA",
        "marker-symbol": "america-football",
        "marker-color": "#9F8170"
      }
    },
    {
      "type": "Feature",
      "geometry": {
        "type": "Point",
        "coordinates": [
          -91.154404,
          30.4506
        ]
      },
      "properties": {
        "Name": "Blane Arnold",
        "Height": "5' 7''",
        "Weight": "175 lbs",
        "Birthplace": "Baton Rouge, LA",
        "marker-symbol": "america-football",
        "marker-color": "#9F8170"
      }
    },
    {
      "type": "Feature",
      "geometry": {
        "type": "Point",
        "coordinates": [
          -118.188301,
          33.766899
        ]
      },
      "properties": {
        "Name": "Dabness Atkins",
        "Height": "5' 7''",
        "Weight": "160 lbs",
        "Birthplace": "Long Beach, CA",
        "marker-symbol": "america-football",
        "marker-color": "#9F8170"
      }
    },
    {
      "type": "Feature",
      "geometry": {
        "type": "Point",
        "coordinates": [
          -93.092201,
          37.643902
        ]
      },
      "properties": {
        "Name": "Duane Atteberry",
        "Height": "5' 7''",
        "Weight": "165 lbs",
        "Birthplace": "Buffalo, MO",
        "marker-symbol": "america-football",
        "marker-color": "#9F8170"
      }
    },
    {
      "type": "Feature",
      "geometry": {
        "type": "Point",
        "coordinates": [
          -73.207802,
          41.3325
        ]
      },
      "properties": {
        "Name": "Nick Bacarella",
        "Height": "5' 7''",
        "Weight": "150 lbs",
        "Birthplace": "Monroe, CT",
        "marker-symbol": "america-football",
        "marker-color": "#9F8170"
      }
    },
    {
      "type": "Feature",
      "geometry": {
        "type": "Point",
        "coordinates": [
          -80.057198,
          26.615601
        ]
      },
      "properties": {
        "Name": "Terrell Badie",
        "Height": "5' 7''",
        "Weight": "207 lbs",
        "Birthplace": "Lake Worth, FL",
        "marker-symbol": "america-football",
        "marker-color": "#9F8170"
      }
    },
    {
      "type": "Feature",
      "geometry": {
        "type": "Point",
        "coordinates": [
          -87.68338,
          41.440033
        ]
      },
      "properties": {
        "Name": "Mike Banks",
        "Height": "5' 7''",
        "Weight": "175 lbs",
        "Birthplace": "University Park, IL",
        "marker-symbol": "america-football",
        "marker-color": "#9F8170"
      }
    },
    {
      "type": "Feature",
      "geometry": {
        "type": "Point",
        "coordinates": [
          -118.242798,
          34.0522
        ]
      },
      "properties": {
        "Name": "Librado Barocio",
        "Height": "5' 7''",
        "Weight": "161 lbs",
        "Birthplace": "Los Angeles, CA",
        "marker-symbol": "america-football",
        "marker-color": "#9F8170"
      }
    },
    {
      "type": "Feature",
      "geometry": {
        "type": "Point",
        "coordinates": [
          -80.193901,
          25.773899
        ]
      },
      "properties": {
        "Name": "Sorie Bayoh",
        "Height": "5' 7''",
        "Weight": "175 lbs",
        "Birthplace": "Miami, FL",
        "marker-symbol": "america-football",
        "marker-color": "#9F8170"
      }
    },
    {
      "type": "Feature",
      "geometry": {
        "type": "Point",
        "coordinates": [
          -83.278603,
          30.8325
        ]
      },
      "properties": {
        "Name": "Shaq Beverly",
        "Height": "5' 7''",
        "Weight": "152 lbs",
        "Birthplace": "Valdosta, GA",
        "marker-symbol": "america-football",
        "marker-color": "#9F8170"
      }
    },
    {
      "type": "Feature",
      "geometry": {
        "type": "Point",
        "coordinates": [
          -79.5867,
          34.643902
        ]
      },
      "properties": {
        "Name": "Joshua Blue",
        "Height": "5' 7''",
        "Weight": "167 lbs",
        "Birthplace": "Tatum, SC",
        "marker-symbol": "america-football",
        "marker-color": "#9F8170"
      }
    },
    {
      "type": "Feature",
      "geometry": {
        "type": "Point",
        "coordinates": [
          -96.078102,
          30.0972
        ]
      },
      "properties": {
        "Name": "Chris Booker",
        "Height": "5' 7''",
        "Weight": "165 lbs",
        "Birthplace": "Hempstead, TX",
        "marker-symbol": "america-football",
        "marker-color": "#9F8170"
      }
    },
    {
      "type": "Feature",
      "geometry": {
        "type": "Point",
        "coordinates": [
          -116.202499,
          43.613602
        ]
      },
      "properties": {
        "Name": "Josh Borgman",
        "Height": "5' 7''",
        "Weight": "174 lbs",
        "Birthplace": "Boise, ID",
        "marker-symbol": "america-football",
        "marker-color": "#9F8170"
      }
    },
    {
      "type": "Feature",
      "geometry": {
        "type": "Point",
        "coordinates": [
          -76.612503,
          39.290298
        ]
      },
      "properties": {
        "Name": "Leroy Bradford",
        "Height": "5' 7''",
        "Weight": "190 lbs",
        "Birthplace": "Baltimore, MD",
        "marker-symbol": "america-football",
        "marker-color": "#9F8170"
      }
    },
    {
      "type": "Feature",
      "geometry": {
        "type": "Point",
        "coordinates": [
          -80.013298,
          33.195801
        ]
      },
      "properties": {
        "Name": "Tevin Bradshaw",
        "Height": "5' 7''",
        "Weight": "155 lbs",
        "Birthplace": "Moncks Corner, SC",
        "marker-symbol": "america-football",
        "marker-color": "#9F8170"
      }
    },
    {
      "type": "Feature",
      "geometry": {
        "type": "Point",
        "coordinates": [
          -83.382149,
          42.569214
        ]
      },
      "properties": {
        "Name": "C.J. Brathwaite",
        "Height": "5' 7''",
        "Weight": "185 lbs",
        "Birthplace": "West Bloomfield, MI",
        "marker-symbol": "america-football",
        "marker-color": "#9F8170"
      }
    },
    {
      "type": "Feature",
      "geometry": {
        "type": "Point",
        "coordinates": [
          -73.994637,
          40.720409
        ]
      },
      "properties": {
        "Name": "Steven Broccoli",
        "Height": "5' 7''",
        "Weight": "155 lbs",
        "Birthplace": "New York, NY",
        "marker-symbol": "america-football",
        "marker-color": "#9F8170"
      }
    },
    {
      "type": "Feature",
      "geometry": {
        "type": "Point",
        "coordinates": [
          -118.296898,
          33.790001
        ]
      },
      "properties": {
        "Name": "Leon Brooks",
        "Height": "5' 7''",
        "Weight": "166 lbs",
        "Birthplace": "Harbor City, CA",
        "marker-symbol": "america-football",
        "marker-color": "#9F8170"
      }
    },
    {
      "type": "Feature",
      "geometry": {
        "type": "Point",
        "coordinates": [
          -121.289703,
          37.957802
        ]
      },
      "properties": {
        "Name": "Josh Brown",
        "Height": "5' 7''",
        "Weight": "180 lbs",
        "Birthplace": "Stockton, CA",
        "marker-symbol": "america-football",
        "marker-color": "#9F8170"
      }
    },
    {
      "type": "Feature",
      "geometry": {
        "type": "Point",
        "coordinates": [
          -86.843597,
          34.174702
        ]
      },
      "properties": {
        "Name": "T.J. Bryant",
        "Height": "5' 7''",
        "Weight": "168 lbs",
        "Birthplace": "Cullman, AL",
        "marker-symbol": "america-football",
        "marker-color": "#9F8170"
      }
    },
    {
      "type": "Feature",
      "geometry": {
        "type": "Point",
        "coordinates": [
          -82.998901,
          39.961102
        ]
      },
      "properties": {
        "Name": "Devonte Butler",
        "Height": "5' 7''",
        "Weight": "170 lbs",
        "Birthplace": "Columbus, OH",
        "marker-symbol": "america-football",
        "marker-color": "#9F8170"
      }
    },
    {
      "type": "Feature",
      "geometry": {
        "type": "Point",
        "coordinates": [
          -121.804703,
          38.005001
        ]
      },
      "properties": {
        "Name": "Kylan Butler",
        "Height": "5' 7''",
        "Weight": "186 lbs",
        "Birthplace": "Antioch, CA",
        "marker-symbol": "america-football",
        "marker-color": "#9F8170"
      }
    },
    {
      "type": "Feature",
      "geometry": {
        "type": "Point",
        "coordinates": [
          -81.379402,
          28.538099
        ]
      },
      "properties": {
        "Name": "Chase Butner",
        "Height": "5' 7''",
        "Weight": "170 lbs",
        "Birthplace": "Orlando, FL",
        "marker-symbol": "america-football",
        "marker-color": "#9F8170"
      }
    },
    {
      "type": "Feature",
      "geometry": {
        "type": "Point",
        "coordinates": [
          -81.519203,
          41.081402
        ]
      },
      "properties": {
        "Name": "Ernest Calhoun",
        "Height": "5' 7''",
        "Weight": "150 lbs",
        "Birthplace": "Akron, OH",
        "marker-symbol": "america-football",
        "marker-color": "#9F8170"
      }
    },
    {
      "type": "Feature",
      "geometry": {
        "type": "Point",
        "coordinates": [
          -93.75,
          32.525002
        ]
      },
      "properties": {
        "Name": "Richard Carthon",
        "Height": "5' 7''",
        "Weight": "197 lbs",
        "Birthplace": "Shreveport, LA",
        "marker-symbol": "america-football",
        "marker-color": "#9F8170"
      }
    },
    {
      "type": "Feature",
      "geometry": {
        "type": "Point",
        "coordinates": [
          -86.158096,
          39.768299
        ]
      },
      "properties": {
        "Name": "George Cheeseborough",
        "Height": "5' 7''",
        "Weight": "170 lbs",
        "Birthplace": "Indianapolis, IN",
        "marker-symbol": "america-football",
        "marker-color": "#9F8170"
      }
    },
    {
      "type": "Feature",
      "geometry": {
        "type": "Point",
        "coordinates": [
          -81.035004,
          34.000599
        ]
      },
      "properties": {
        "Name": "Grant Clayton",
        "Height": "5' 7''",
        "Weight": "160 lbs",
        "Birthplace": "Columbia, SC",
        "marker-symbol": "america-football",
        "marker-color": "#9F8170"
      }
    },
    {
      "type": "Feature",
      "geometry": {
        "type": "Point",
        "coordinates": [
          -122.233597,
          47.3811
        ]
      },
      "properties": {
        "Name": "Darrius Coleman",
        "Height": "5' 7''",
        "Weight": "174 lbs",
        "Birthplace": "Kent, WA",
        "marker-symbol": "america-football",
        "marker-color": "#9F8170"
      }
    },
    {
      "type": "Feature",
      "geometry": {
        "type": "Point",
        "coordinates": [
          -81.678299,
          29.991699
        ]
      },
      "properties": {
        "Name": "Shane Coleman",
        "Height": "5' 7''",
        "Weight": "195 lbs",
        "Birthplace": "Green Cove Springs, FL",
        "marker-symbol": "america-football",
        "marker-color": "#9F8170"
      }
    },
    {
      "type": "Feature",
      "geometry": {
        "type": "Point",
        "coordinates": [
          -84.143097,
          33.889999
        ]
      },
      "properties": {
        "Name": "Ed Collins",
        "Height": "5' 7''",
        "Weight": "180 lbs",
        "Birthplace": "Lilburn, GA",
        "marker-symbol": "america-football",
        "marker-color": "#9F8170"
      }
    },
    {
      "type": "Feature",
      "geometry": {
        "type": "Point",
        "coordinates": [
          -73.837502,
          40.912498
        ]
      },
      "properties": {
        "Name": "Justin Combs",
        "Height": "5' 7''",
        "Weight": "165 lbs",
        "Birthplace": "Mount Vernon, NY",
        "marker-symbol": "america-football",
        "marker-color": "#9F8170"
      }
    },
    {
      "type": "Feature",
      "geometry": {
        "type": "Point",
        "coordinates": [
          -88.9506,
          34.729698
        ]
      },
      "properties": {
        "Name": "Jaquise Cook",
        "Height": "5' 7''",
        "Weight": "180 lbs",
        "Birthplace": "Ripley, MS",
        "marker-symbol": "america-football",
        "marker-color": "#9F8170"
      }
    },
    {
      "type": "Feature",
      "geometry": {
        "type": "Point",
        "coordinates": [
          -84.360603,
          39.863098
        ]
      },
      "properties": {
        "Name": "Quintin Cooper",
        "Height": "5' 7''",
        "Weight": "182 lbs",
        "Birthplace": "Clayton, OH",
        "marker-symbol": "america-football",
        "marker-color": "#9F8170"
      }
    },
    {
      "type": "Feature",
      "geometry": {
        "type": "Point",
        "coordinates": [
          -118.586304,
          34.389099
        ]
      },
      "properties": {
        "Name": "Jeffrey Coprich",
        "Height": "5' 7''",
        "Weight": "170 lbs",
        "Birthplace": "Stevenson Ranch, CA",
        "marker-symbol": "america-football",
        "marker-color": "#9F8170"
      }
    },
    {
      "type": "Feature",
      "geometry": {
        "type": "Point",
        "coordinates": [
          -121.954201,
          37.354198
        ]
      },
      "properties": {
        "Name": "Tim Crawley",
        "Height": "5' 7''",
        "Weight": "160 lbs",
        "Birthplace": "Santa Clara, CA",
        "marker-symbol": "america-football",
        "marker-color": "#9F8170"
      }
    },
    {
      "type": "Feature",
      "geometry": {
        "type": "Point",
        "coordinates": [
          -80.2444,
          36.099701
        ]
      },
      "properties": {
        "Name": "Trey Crosby",
        "Height": "5' 7''",
        "Weight": "166 lbs",
        "Birthplace": "Winston-Salem, NC",
        "marker-symbol": "america-football",
        "marker-color": "#9F8170"
      }
    },
    {
      "type": "Feature",
      "geometry": {
        "type": "Point",
        "coordinates": [
          -90.0625,
          29.957079
        ]
      },
      "properties": {
        "Name": "Kenneth Dabney",
        "Height": "5' 7''",
        "Weight": "156 lbs",
        "Birthplace": "New Orleans, LA",
        "marker-symbol": "america-football",
        "marker-color": "#9F8170"
      }
    },
    {
      "type": "Feature",
      "geometry": {
        "type": "Point",
        "coordinates": [
          -81.407799,
          28.2917
        ]
      },
      "properties": {
        "Name": "Akeem Daniels",
        "Height": "5' 7''",
        "Weight": "184 lbs",
        "Birthplace": "Kissimmee, FL",
        "marker-symbol": "america-football",
        "marker-color": "#9F8170"
      }
    },
    {
      "type": "Feature",
      "geometry": {
        "type": "Point",
        "coordinates": [
          -95.6008,
          33.138302
        ]
      },
      "properties": {
        "Name": "Kendrick Daniels",
        "Height": "5' 7''",
        "Weight": "155 lbs",
        "Birthplace": "Sulphur Springs, TX",
        "marker-symbol": "america-football",
        "marker-color": "#9F8170"
      }
    },
    {
      "type": "Feature",
      "geometry": {
        "type": "Point",
        "coordinates": [
          -117.434196,
          34.092201
        ]
      },
      "properties": {
        "Name": "David Dash",
        "Height": "5' 7''",
        "Weight": "171 lbs",
        "Birthplace": "Fontana, CA",
        "marker-symbol": "america-football",
        "marker-color": "#9F8170"
      }
    },
    {
      "type": "Feature",
      "geometry": {
        "type": "Point",
        "coordinates": [
          -79.792198,
          36.072498
        ]
      },
      "properties": {
        "Name": "Eric Davidson",
        "Height": "5' 7''",
        "Weight": "200 lbs",
        "Birthplace": "Greensboro, NC",
        "marker-symbol": "america-football",
        "marker-color": "#9F8170"
      }
    },
    {
      "type": "Feature",
      "geometry": {
        "type": "Point",
        "coordinates": [
          -88.1269,
          30.7633
        ]
      },
      "properties": {
        "Name": "Janawski Davis",
        "Height": "5' 7''",
        "Weight": "150 lbs",
        "Birthplace": "Eight Mile, AL",
        "marker-symbol": "america-football",
        "marker-color": "#9F8170"
      }
    },
    {
      "type": "Feature",
      "geometry": {
        "type": "Point",
        "coordinates": [
          -84.456902,
          39.1619
        ]
      },
      "properties": {
        "Name": "Kenneth Davis",
        "Height": "5' 7''",
        "Weight": "180 lbs",
        "Birthplace": "Cincinnati, OH",
        "marker-symbol": "america-football",
        "marker-color": "#9F8170"
      }
    },
    {
      "type": "Feature",
      "geometry": {
        "type": "Point",
        "coordinates": [
          -77.441902,
          37.356701
        ]
      },
      "properties": {
        "Name": "Ryan Davis",
        "Height": "5' 7''",
        "Weight": "165 lbs",
        "Birthplace": "Chester, VA",
        "marker-symbol": "america-football",
        "marker-color": "#9F8170"
      }
    },
    {
      "type": "Feature",
      "geometry": {
        "type": "Point",
        "coordinates": [
          -82.113098,
          28.018299
        ]
      },
      "properties": {
        "Name": "Keith Dawson",
        "Height": "5' 7''",
        "Weight": "190 lbs",
        "Birthplace": "Plant City, FL",
        "marker-symbol": "america-football",
        "marker-color": "#9F8170"
      }
    },
    {
      "type": "Feature",
      "geometry": {
        "type": "Point",
        "coordinates": [
          -81.872498,
          26.640301
        ]
      },
      "properties": {
        "Name": "Mark Deboy",
        "Height": "5' 7''",
        "Weight": "216 lbs",
        "Birthplace": "Fort Myers, FL",
        "marker-symbol": "america-football",
        "marker-color": "#9F8170"
      }
    },
    {
      "type": "Feature",
      "geometry": {
        "type": "Point",
        "coordinates": [
          -74.160301,
          40.822201
        ]
      },
      "properties": {
        "Name": "Matt DelMauro",
        "Height": "5' 7''",
        "Weight": "180 lbs",
        "Birthplace": "Nutley, NJ",
        "marker-symbol": "america-football",
        "marker-color": "#9F8170"
      }
    },
    {
      "type": "Feature",
      "geometry": {
        "type": "Point",
        "coordinates": [
          -118.387497,
          33.849201
        ]
      },
      "properties": {
        "Name": "Nick Diaz",
        "Height": "5' 7''",
        "Weight": "197 lbs",
        "Birthplace": "Redondo Beach, CA",
        "marker-symbol": "america-football",
        "marker-color": "#9F8170"
      }
    },
    {
      "type": "Feature",
      "geometry": {
        "type": "Point",
        "coordinates": [
          -80.073601,
          34.373901
        ]
      },
      "properties": {
        "Name": "Damian Dixon",
        "Height": "5' 7''",
        "Weight": "181 lbs",
        "Birthplace": "Hartsville, SC",
        "marker-symbol": "america-football",
        "marker-color": "#9F8170"
      }
    },
    {
      "type": "Feature",
      "geometry": {
        "type": "Point",
        "coordinates": [
          -82.101402,
          39.329201
        ]
      },
      "properties": {
        "Name": "Ian Dixon",
        "Height": "5' 7''",
        "Weight": "157 lbs",
        "Birthplace": "Athens, OH",
        "marker-symbol": "america-football",
        "marker-color": "#9F8170"
      }
    },
    {
      "type": "Feature",
      "geometry": {
        "type": "Point",
        "coordinates": [
          -80.200302,
          35.349998
        ]
      },
      "properties": {
        "Name": "Desi Dockery",
        "Height": "5' 7''",
        "Weight": "150 lbs",
        "Birthplace": "Albemarle, NC",
        "marker-symbol": "america-football",
        "marker-color": "#9F8170"
      }
    },
    {
      "type": "Feature",
      "geometry": {
        "type": "Point",
        "coordinates": [
          -78.835297,
          40.2397
        ]
      },
      "properties": {
        "Name": "Dane Domonkos",
        "Height": "5' 7''",
        "Weight": "165 lbs",
        "Birthplace": "Windber, PA",
        "marker-symbol": "america-football",
        "marker-color": "#9F8170"
      }
    },
    {
      "type": "Feature",
      "geometry": {
        "type": "Point",
        "coordinates": [
          -82.7472,
          31.0364
        ]
      },
      "properties": {
        "Name": "Trey Dorsey",
        "Height": "5' 7''",
        "Weight": "182 lbs",
        "Birthplace": "Homerville, GA",
        "marker-symbol": "america-football",
        "marker-color": "#9F8170"
      }
    },
    {
      "type": "Feature",
      "geometry": {
        "type": "Point",
        "coordinates": [
          -80.252998,
          25.904551
        ]
      },
      "properties": {
        "Name": "Jason Douglas",
        "Height": "5' 7''",
        "Weight": "180 lbs",
        "Birthplace": "Opa Locka, FL",
        "marker-symbol": "america-football",
        "marker-color": "#9F8170"
      }
    },
    {
      "type": "Feature",
      "geometry": {
        "type": "Point",
        "coordinates": [
          -96.5989,
          32.7667
        ]
      },
      "properties": {
        "Name": "Brandon Durham",
        "Height": "5' 7''",
        "Weight": "155 lbs",
        "Birthplace": "Mesquite, TX",
        "marker-symbol": "america-football",
        "marker-color": "#9F8170"
      }
    },
    {
      "type": "Feature",
      "geometry": {
        "type": "Point",
        "coordinates": [
          -89.654999,
          37.18
        ]
      },
      "properties": {
        "Name": "Tyson Estes",
        "Height": "5' 7''",
        "Weight": "175 lbs",
        "Birthplace": "Chaffee, MO",
        "marker-symbol": "america-football",
        "marker-color": "#9F8170"
      }
    },
    {
      "type": "Feature",
      "geometry": {
        "type": "Point",
        "coordinates": [
          -90.1847,
          32.298599
        ]
      },
      "properties": {
        "Name": "Dominick Fears",
        "Height": "5' 7''",
        "Weight": "180 lbs",
        "Birthplace": "Jackson, MS",
        "marker-symbol": "america-football",
        "marker-color": "#9F8170"
      }
    },
    {
      "type": "Feature",
      "geometry": {
        "type": "Point",
        "coordinates": [
          -109.706902,
          32.8339
        ]
      },
      "properties": {
        "Name": "Jeremy Fielder",
        "Height": "5' 7''",
        "Weight": "180 lbs",
        "Birthplace": "Safford, AZ",
        "marker-symbol": "america-football",
        "marker-color": "#9F8170"
      }
    },
    {
      "type": "Feature",
      "geometry": {
        "type": "Point",
        "coordinates": [
          -88.314697,
          36.610298
        ]
      },
      "properties": {
        "Name": "Bob Fields",
        "Height": "5' 7''",
        "Weight": "160 lbs",
        "Birthplace": "Murray, KY",
        "marker-symbol": "america-football",
        "marker-color": "#9F8170"
      }
    },
    {
      "type": "Feature",
      "geometry": {
        "type": "Point",
        "coordinates": [
          -86.482201,
          30.516701
        ]
      },
      "properties": {
        "Name": "Roy Finch",
        "Height": "5' 7''",
        "Weight": "175 lbs",
        "Birthplace": "Niceville, FL",
        "marker-symbol": "america-football",
        "marker-color": "#9F8170"
      }
    },
    {
      "type": "Feature",
      "geometry": {
        "type": "Point",
        "coordinates": [
          -117.565598,
          33.875301
        ]
      },
      "properties": {
        "Name": "Brandon Flanagan",
        "Height": "5' 7''",
        "Weight": "165 lbs",
        "Birthplace": "Corona, CA",
        "marker-symbol": "america-football",
        "marker-color": "#9F8170"
      }
    },
    {
      "type": "Feature",
      "geometry": {
        "type": "Point",
        "coordinates": [
          -92.019699,
          30.2239
        ]
      },
      "properties": {
        "Name": "Matthew Flores",
        "Height": "5' 7''",
        "Weight": "180 lbs",
        "Birthplace": "Lafayette, LA",
        "marker-symbol": "america-football",
        "marker-color": "#9F8170"
      }
    },
    {
      "type": "Feature",
      "geometry": {
        "type": "Point",
        "coordinates": [
          -106.663887,
          35.23333
        ]
      },
      "properties": {
        "Name": "Tim Foley",
        "Height": "5' 7''",
        "Weight": "170 lbs",
        "Birthplace": "Rio Rancho, NM",
        "marker-symbol": "america-football",
        "marker-color": "#9F8170"
      }
    },
    {
      "type": "Feature",
      "geometry": {
        "type": "Point",
        "coordinates": [
          -87.339996,
          30.608299
        ]
      },
      "properties": {
        "Name": "Qudarius Ford",
        "Height": "5' 7''",
        "Weight": "170 lbs",
        "Birthplace": "Cantonment, FL",
        "marker-symbol": "america-football",
        "marker-color": "#9F8170"
      }
    },
    {
      "type": "Feature",
      "geometry": {
        "type": "Point",
        "coordinates": [
          -117.290298,
          34.536098
        ]
      },
      "properties": {
        "Name": "Ayele Forde",
        "Height": "5' 7''",
        "Weight": "177 lbs",
        "Birthplace": "Victorville, CA",
        "marker-symbol": "america-football",
        "marker-color": "#9F8170"
      }
    },
    {
      "type": "Feature",
      "geometry": {
        "type": "Point",
        "coordinates": [
          -117.395302,
          33.9533
        ]
      },
      "properties": {
        "Name": "SaDale Foster",
        "Height": "5' 7''",
        "Weight": "187 lbs",
        "Birthplace": "Riverside, CA",
        "marker-symbol": "america-football",
        "marker-color": "#9F8170"
      }
    },
    {
      "type": "Feature",
      "geometry": {
        "type": "Point",
        "coordinates": [
          -121.214996,
          37.797501
        ]
      },
      "properties": {
        "Name": "Beau Fryer",
        "Height": "5' 7''",
        "Weight": "167 lbs",
        "Birthplace": "Manteca, CA",
        "marker-symbol": "america-football",
        "marker-color": "#9F8170"
      }
    },
    {
      "type": "Feature",
      "geometry": {
        "type": "Point",
        "coordinates": [
          -84.799698,
          33.3806
        ]
      },
      "properties": {
        "Name": "Otis Gates",
        "Height": "5' 7''",
        "Weight": "195 lbs",
        "Birthplace": "Newnan, GA",
        "marker-symbol": "america-football",
        "marker-color": "#9F8170"
      }
    },
    {
      "type": "Feature",
      "geometry": {
        "type": "Point",
        "coordinates": [
          -84.004402,
          34.120602
        ]
      },
      "properties": {
        "Name": "Cody Getz",
        "Height": "5' 7''",
        "Weight": "175 lbs",
        "Birthplace": "Buford, GA",
        "marker-symbol": "america-football",
        "marker-color": "#9F8170"
      }
    },
    {
      "type": "Feature",
      "geometry": {
        "type": "Point",
        "coordinates": [
          -94.9711,
          29.368299
        ]
      },
      "properties": {
        "Name": "Michael Gilmore",
        "Height": "5' 7''",
        "Weight": "155 lbs",
        "Birthplace": "La Marque, TX",
        "marker-symbol": "america-football",
        "marker-color": "#9F8170"
      }
    },
    {
      "type": "Feature",
      "geometry": {
        "type": "Point",
        "coordinates": [
          -90.338097,
          29.5425
        ]
      },
      "properties": {
        "Name": "Russ Gisclair",
        "Height": "5' 7''",
        "Weight": "221 lbs",
        "Birthplace": "Cut Off, LA",
        "marker-symbol": "america-football",
        "marker-color": "#9F8170"
      }
    },
    {
      "type": "Feature",
      "geometry": {
        "type": "Point",
        "coordinates": [
          -97.724197,
          35.384201
        ]
      },
      "properties": {
        "Name": "David Glidden",
        "Height": "5' 7''",
        "Weight": "171 lbs",
        "Birthplace": "Mustang, OK",
        "marker-symbol": "america-football",
        "marker-color": "#9F8170"
      }
    },
    {
      "type": "Feature",
      "geometry": {
        "type": "Point",
        "coordinates": [
          -84.676903,
          34.0658
        ]
      },
      "properties": {
        "Name": "Robert Godhigh",
        "Height": "5' 7''",
        "Weight": "188 lbs",
        "Birthplace": "Acworth, GA",
        "marker-symbol": "america-football",
        "marker-color": "#9F8170"
      }
    },
    {
      "type": "Feature",
      "geometry": {
        "type": "Point",
        "coordinates": [
          -95.808296,
          29.5569
        ]
      },
      "properties": {
        "Name": "D.D. Goodson",
        "Height": "5' 7''",
        "Weight": "170 lbs",
        "Birthplace": "Rosenberg, TX",
        "marker-symbol": "america-football",
        "marker-color": "#9F8170"
      }
    },
    {
      "type": "Feature",
      "geometry": {
        "type": "Point",
        "coordinates": [
          -86.683296,
          33.6889
        ]
      },
      "properties": {
        "Name": "Lonnie Gosha",
        "Height": "5' 7''",
        "Weight": "165 lbs",
        "Birthplace": "Pinson, AL",
        "marker-symbol": "america-football",
        "marker-color": "#9F8170"
      }
    },
    {
      "type": "Feature",
      "geometry": {
        "type": "Point",
        "coordinates": [
          -76.4925,
          38.978298
        ]
      },
      "properties": {
        "Name": "Darrell Green",
        "Height": "5' 7''",
        "Weight": "160 lbs",
        "Birthplace": "Annapolis, MD",
        "marker-symbol": "america-football",
        "marker-color": "#9F8170"
      }
    },
    {
      "type": "Feature",
      "geometry": {
        "type": "Point",
        "coordinates": [
          -82.572502,
          27.521099
        ]
      },
      "properties": {
        "Name": "Marquis Green",
        "Height": "5' 7''",
        "Weight": "175 lbs",
        "Birthplace": "Palmetto, FL",
        "marker-symbol": "america-football",
        "marker-color": "#9F8170"
      }
    },
    {
      "type": "Feature",
      "geometry": {
        "type": "Point",
        "coordinates": [
          -122.770302,
          45.4314
        ]
      },
      "properties": {
        "Name": "Ralph Greene",
        "Height": "5' 7''",
        "Weight": "170 lbs",
        "Birthplace": "Tigard, OR",
        "marker-symbol": "america-football",
        "marker-color": "#9F8170"
      }
    },
    {
      "type": "Feature",
      "geometry": {
        "type": "Point",
        "coordinates": [
          -75.980003,
          36.391701
        ]
      },
      "properties": {
        "Name": "Marquise Grizzle",
        "Height": "5' 7''",
        "Weight": "173 lbs",
        "Birthplace": "Barco, NC",
        "marker-symbol": "america-football",
        "marker-color": "#9F8170"
      }
    },
    {
      "type": "Feature",
      "geometry": {
        "type": "Point",
        "coordinates": [
          -84.283096,
          33.386902
        ]
      },
      "properties": {
        "Name": "Jalen Hamilton",
        "Height": "5' 7''",
        "Weight": "160 lbs",
        "Birthplace": "Hampton, GA",
        "marker-symbol": "america-football",
        "marker-color": "#9F8170"
      }
    },
    {
      "type": "Feature",
      "geometry": {
        "type": "Point",
        "coordinates": [
          -90.215599,
          29.959999
        ]
      },
      "properties": {
        "Name": "Josh Hanberry",
        "Height": "5' 7''",
        "Weight": "157 lbs",
        "Birthplace": "River Ridge, LA",
        "marker-symbol": "america-football",
        "marker-color": "#9F8170"
      }
    },
    {
      "type": "Feature",
      "geometry": {
        "type": "Point",
        "coordinates": [
          -73.454399,
          41.394699
        ]
      },
      "properties": {
        "Name": "Tyler Hancock",
        "Height": "5' 7''",
        "Weight": "210 lbs",
        "Birthplace": "Danbury, CT",
        "marker-symbol": "america-football",
        "marker-color": "#9F8170"
      }
    },
    {
      "type": "Feature",
      "geometry": {
        "type": "Point",
        "coordinates": [
          -95.363098,
          29.7631
        ]
      },
      "properties": {
        "Name": "Wes Harlan",
        "Height": "5' 7''",
        "Weight": "178 lbs",
        "Birthplace": "Houston, TX",
        "marker-symbol": "america-football",
        "marker-color": "#9F8170"
      }
    },
    {
      "type": "Feature",
      "geometry": {
        "type": "Point",
        "coordinates": [
          -81.379402,
          28.538099
        ]
      },
      "properties": {
        "Name": "Diante' Harrison",
        "Height": "5' 7''",
        "Weight": "172 lbs",
        "Birthplace": "Orlando, FL",
        "marker-symbol": "america-football",
        "marker-color": "#9F8170"
      }
    },
    {
      "type": "Feature",
      "geometry": {
        "type": "Point",
        "coordinates": [
          -74.209396,
          40.825802
        ]
      },
      "properties": {
        "Name": "Khalif Herbin",
        "Height": "5' 7''",
        "Weight": "158 lbs",
        "Birthplace": "Montclair, NJ",
        "marker-symbol": "america-football",
        "marker-color": "#9F8170"
      }
    },
    {
      "type": "Feature",
      "geometry": {
        "type": "Point",
        "coordinates": [
          -104.831398,
          39.729401
        ]
      },
      "properties": {
        "Name": "Quentin Hildreth",
        "Height": "5' 7''",
        "Weight": "205 lbs",
        "Birthplace": "Aurora, CO",
        "marker-symbol": "america-football",
        "marker-color": "#9F8170"
      }
    },
    {
      "type": "Feature",
      "geometry": {
        "type": "Point",
        "coordinates": [
          -157.970535,
          21.394056
        ]
      },
      "properties": {
        "Name": "Ryan Ho",
        "Height": "5' 7''",
        "Weight": "187 lbs",
        "Birthplace": "Pearl City, HI",
        "marker-symbol": "america-football",
        "marker-color": "#9F8170"
      }
    },
    {
      "type": "Feature",
      "geometry": {
        "type": "Point",
        "coordinates": [
          -74.923103,
          40.1744
        ]
      },
      "properties": {
        "Name": "Ariel Hoffman",
        "Height": "5' 7''",
        "Weight": "190 lbs",
        "Birthplace": "Langhorne, PA",
        "marker-symbol": "america-football",
        "marker-color": "#9F8170"
      }
    },
    {
      "type": "Feature",
      "geometry": {
        "type": "Point",
        "coordinates": [
          -73.694397,
          41.785
        ]
      },
      "properties": {
        "Name": "David Hollingsworth",
        "Height": "5' 7''",
        "Weight": "187 lbs",
        "Birthplace": "Millbrook, NY",
        "marker-symbol": "america-football",
        "marker-color": "#9F8170"
      }
    },
    {
      "type": "Feature",
      "geometry": {
        "type": "Point",
        "coordinates": [
          -82.458603,
          27.947201
        ]
      },
      "properties": {
        "Name": "Brandon Holloway",
        "Height": "5' 7''",
        "Weight": "165 lbs",
        "Birthplace": "Tampa, FL",
        "marker-symbol": "america-football",
        "marker-color": "#9F8170"
      }
    },
    {
      "type": "Feature",
      "geometry": {
        "type": "Point",
        "coordinates": [
          -82.113098,
          28.018299
        ]
      },
      "properties": {
        "Name": "Sirchauncey Holloway",
        "Height": "5' 7''",
        "Weight": "205 lbs",
        "Birthplace": "Plant City, FL",
        "marker-symbol": "america-football",
        "marker-color": "#9F8170"
      }
    },
    {
      "type": "Feature",
      "geometry": {
        "type": "Point",
        "coordinates": [
          -97.1464,
          31.5492
        ]
      },
      "properties": {
        "Name": "John Hubert",
        "Height": "5' 7''",
        "Weight": "191 lbs",
        "Birthplace": "Waco, TX",
        "marker-symbol": "america-football",
        "marker-color": "#9F8170"
      }
    },
    {
      "type": "Feature",
      "geometry": {
        "type": "Point",
        "coordinates": [
          -111.890297,
          40.760799
        ]
      },
      "properties": {
        "Name": "Lavell Ika",
        "Height": "5' 7''",
        "Weight": "240 lbs",
        "Birthplace": "Salt Lake City, UT",
        "marker-symbol": "america-football",
        "marker-color": "#9F8170"
      }
    },
    {
      "type": "Feature",
      "geometry": {
        "type": "Point",
        "coordinates": [
          -78.898903,
          35.9939
        ]
      },
      "properties": {
        "Name": "Geovonie Irvine",
        "Height": "5' 7''",
        "Weight": "161 lbs",
        "Birthplace": "Durham, NC",
        "marker-symbol": "america-football",
        "marker-color": "#9F8170"
      }
    },
    {
      "type": "Feature",
      "geometry": {
        "type": "Point",
        "coordinates": [
          -118.352203,
          33.9617
        ]
      },
      "properties": {
        "Name": "Eric Jackson",
        "Height": "5' 7''",
        "Weight": "160 lbs",
        "Birthplace": "Inglewood, CA",
        "marker-symbol": "america-football",
        "marker-color": "#9F8170"
      }
    },
    {
      "type": "Feature",
      "geometry": {
        "type": "Point",
        "coordinates": [
          -117.156403,
          32.715302
        ]
      },
      "properties": {
        "Name": "Kenn James",
        "Height": "5' 7''",
        "Weight": "175 lbs",
        "Birthplace": "San Diego, CA",
        "marker-symbol": "america-football",
        "marker-color": "#9F8170"
      }
    },
    {
      "type": "Feature",
      "geometry": {
        "type": "Point",
        "coordinates": [
          -87.86956,
          41.813251
        ]
      },
      "properties": {
        "Name": "Mike Javorski",
        "Height": "5' 7''",
        "Weight": "175 lbs",
        "Birthplace": "Lagrange, IL",
        "marker-symbol": "america-football",
        "marker-color": "#9F8170"
      }
    },
    {
      "type": "Feature",
      "geometry": {
        "type": "Point",
        "coordinates": [
          -86.300003,
          32.366698
        ]
      },
      "properties": {
        "Name": "Adam Johnson",
        "Height": "5' 7''",
        "Weight": "168 lbs",
        "Birthplace": "Montgomery, AL",
        "marker-symbol": "america-football",
        "marker-color": "#9F8170"
      }
    },
    {
      "type": "Feature",
      "geometry": {
        "type": "Point",
        "coordinates": [
          -84.3881,
          33.748901
        ]
      },
      "properties": {
        "Name": "Brendan Johnson",
        "Height": "5' 7''",
        "Weight": "180 lbs",
        "Birthplace": "Atlanta, GA",
        "marker-symbol": "america-football",
        "marker-color": "#9F8170"
      }
    },
    {
      "type": "Feature",
      "geometry": {
        "type": "Point",
        "coordinates": [
          -77.4608,
          38.303101
        ]
      },
      "properties": {
        "Name": "Darrian Johnson",
        "Height": "5' 7''",
        "Weight": "174 lbs",
        "Birthplace": "Fredericksburg, VA",
        "marker-symbol": "america-football",
        "marker-color": "#9F8170"
      }
    },
    {
      "type": "Feature",
      "geometry": {
        "type": "Point",
        "coordinates": [
          -76.285599,
          36.846699
        ]
      },
      "properties": {
        "Name": "Eric Johnson",
        "Height": "5' 7''",
        "Weight": "184 lbs",
        "Birthplace": "Norfolk, VA",
        "marker-symbol": "america-football",
        "marker-color": "#9F8170"
      }
    },
    {
      "type": "Feature",
      "geometry": {
        "type": "Point",
        "coordinates": [
          -81.678299,
          29.991699
        ]
      },
      "properties": {
        "Name": "Eric Johnson",
        "Height": "5' 7''",
        "Weight": "170 lbs",
        "Birthplace": "Green Cove Springs, FL",
        "marker-symbol": "america-football",
        "marker-color": "#9F8170"
      }
    },
    {
      "type": "Feature",
      "geometry": {
        "type": "Point",
        "coordinates": [
          -80.588898,
          28.034201
        ]
      },
      "properties": {
        "Name": "Kenny Johnson",
        "Height": "5' 7''",
        "Weight": "172 lbs",
        "Birthplace": "Palm Bay, FL",
        "marker-symbol": "america-football",
        "marker-color": "#9F8170"
      }
    },
    {
      "type": "Feature",
      "geometry": {
        "type": "Point",
        "coordinates": [
          -119.789703,
          36.650299
        ]
      },
      "properties": {
        "Name": "Bruce Jones",
        "Height": "5' 7''",
        "Weight": "171 lbs",
        "Birthplace": "Easton, CA",
        "marker-symbol": "america-football",
        "marker-color": "#9F8170"
      }
    },
    {
      "type": "Feature",
      "geometry": {
        "type": "Point",
        "coordinates": [
          -75.370796,
          40.625801
        ]
      },
      "properties": {
        "Name": "Devon Jones",
        "Height": "5' 7''",
        "Weight": "155 lbs",
        "Birthplace": "Bethlehem, PA",
        "marker-symbol": "america-football",
        "marker-color": "#9F8170"
      }
    },
    {
      "type": "Feature",
      "geometry": {
        "type": "Point",
        "coordinates": [
          -91.301903,
          29.6931
        ]
      },
      "properties": {
        "Name": "Mark Jones",
        "Height": "5' 7''",
        "Weight": "170 lbs",
        "Birthplace": "Patterson, LA",
        "marker-symbol": "america-football",
        "marker-color": "#9F8170"
      }
    },
    {
      "type": "Feature",
      "geometry": {
        "type": "Point",
        "coordinates": [
          -81.992203,
          34.833302
        ]
      },
      "properties": {
        "Name": "Nick Jones",
        "Height": "5' 7''",
        "Weight": "184 lbs",
        "Birthplace": "Moore, SC",
        "marker-symbol": "america-football",
        "marker-color": "#9F8170"
      }
    },
    {
      "type": "Feature",
      "geometry": {
        "type": "Point",
        "coordinates": [
          -118.188301,
          33.766899
        ]
      },
      "properties": {
        "Name": "Terris Jones",
        "Height": "5' 7''",
        "Weight": "177 lbs",
        "Birthplace": "Long Beach, CA",
        "marker-symbol": "america-football",
        "marker-color": "#9F8170"
      }
    },
    {
      "type": "Feature",
      "geometry": {
        "type": "Point",
        "coordinates": [
          -74.172203,
          40.916698
        ]
      },
      "properties": {
        "Name": "Tony Jones",
        "Height": "5' 7''",
        "Weight": "190 lbs",
        "Birthplace": "Paterson, NJ",
        "marker-symbol": "america-football",
        "marker-color": "#9F8170"
      }
    },
    {
      "type": "Feature",
      "geometry": {
        "type": "Point",
        "coordinates": [
          -79.996101,
          40.440601
        ]
      },
      "properties": {
        "Name": "Damion Jones-Moore",
        "Height": "5' 7''",
        "Weight": "180 lbs",
        "Birthplace": "Pittsburgh, PA",
        "marker-symbol": "america-football",
        "marker-color": "#9F8170"
      }
    },
    {
      "type": "Feature",
      "geometry": {
        "type": "Point",
        "coordinates": [
          -80.1436,
          26.121901
        ]
      },
      "properties": {
        "Name": "Johnny Joseph",
        "Height": "5' 7''",
        "Weight": "169 lbs",
        "Birthplace": "Fort Lauderdale, FL",
        "marker-symbol": "america-football",
        "marker-color": "#9F8170"
      }
    },
    {
      "type": "Feature",
      "geometry": {
        "type": "Point",
        "coordinates": [
          -84.017799,
          33.6675
        ]
      },
      "properties": {
        "Name": "Reggie Juin",
        "Height": "5' 7''",
        "Weight": "171 lbs",
        "Birthplace": "Conyers, GA",
        "marker-symbol": "america-football",
        "marker-color": "#9F8170"
      }
    },
    {
      "type": "Feature",
      "geometry": {
        "type": "Point",
        "coordinates": [
          -118.135803,
          34.698101
        ]
      },
      "properties": {
        "Name": "Jerry Kelly",
        "Height": "5' 7''",
        "Weight": "177 lbs",
        "Birthplace": "Lancaster, CA",
        "marker-symbol": "america-football",
        "marker-color": "#9F8170"
      }
    },
    {
      "type": "Feature",
      "geometry": {
        "type": "Point",
        "coordinates": [
          -90.048897,
          35.149399
        ]
      },
      "properties": {
        "Name": "Jesurun Kelly",
        "Height": "5' 7''",
        "Weight": "190 lbs",
        "Birthplace": "Memphis, TN",
        "marker-symbol": "america-football",
        "marker-color": "#9F8170"
      }
    },
    {
      "type": "Feature",
      "geometry": {
        "type": "Point",
        "coordinates": [
          -80.193901,
          25.773899
        ]
      },
      "properties": {
        "Name": "Jermain Kelson",
        "Height": "5' 7''",
        "Weight": "183 lbs",
        "Birthplace": "Miami, FL",
        "marker-symbol": "america-football",
        "marker-color": "#9F8170"
      }
    },
    {
      "type": "Feature",
      "geometry": {
        "type": "Point",
        "coordinates": [
          -81.6558,
          30.3319
        ]
      },
      "properties": {
        "Name": "Kevin King",
        "Height": "5' 7''",
        "Weight": "170 lbs",
        "Birthplace": "Jacksonville, FL",
        "marker-symbol": "america-football",
        "marker-color": "#9F8170"
      }
    },
    {
      "type": "Feature",
      "geometry": {
        "type": "Point",
        "coordinates": [
          -83.7892,
          31.179701
        ]
      },
      "properties": {
        "Name": "Tevin King",
        "Height": "5' 7''",
        "Weight": "170 lbs",
        "Birthplace": "Moultrie, GA",
        "marker-symbol": "america-football",
        "marker-color": "#9F8170"
      }
    },
    {
      "type": "Feature",
      "geometry": {
        "type": "Point",
        "coordinates": [
          -158.077698,
          21.336399
        ]
      },
      "properties": {
        "Name": "Donnie King Jr.",
        "Height": "5' 7''",
        "Weight": "155 lbs",
        "Birthplace": "Kapolei, HI",
        "marker-symbol": "america-football",
        "marker-color": "#9F8170"
      }
    },
    {
      "type": "Feature",
      "geometry": {
        "type": "Point",
        "coordinates": [
          -74.2061,
          41.016701
        ]
      },
      "properties": {
        "Name": "Ross Krautman",
        "Height": "5' 7''",
        "Weight": "157 lbs",
        "Birthplace": "Franklin Lakes, NJ",
        "marker-symbol": "america-football",
        "marker-color": "#9F8170"
      }
    },
    {
      "type": "Feature",
      "geometry": {
        "type": "Point",
        "coordinates": [
          -84.550003,
          33.952499
        ]
      },
      "properties": {
        "Name": "Brandon Lane",
        "Height": "5' 7''",
        "Weight": "173 lbs",
        "Birthplace": "Marietta, GA",
        "marker-symbol": "america-football",
        "marker-color": "#9F8170"
      }
    },
    {
      "type": "Feature",
      "geometry": {
        "type": "Point",
        "coordinates": [
          -95.363098,
          29.7631
        ]
      },
      "properties": {
        "Name": "Keylon LaSalle",
        "Height": "5' 7''",
        "Weight": "158 lbs",
        "Birthplace": "Houston, TX",
        "marker-symbol": "america-football",
        "marker-color": "#9F8170"
      }
    },
    {
      "type": "Feature",
      "geometry": {
        "type": "Point",
        "coordinates": [
          -90.132202,
          32.428299
        ]
      },
      "properties": {
        "Name": "B.J. Lee",
        "Height": "5' 7''",
        "Weight": "185 lbs",
        "Birthplace": "Ridgeland, MS",
        "marker-symbol": "america-football",
        "marker-color": "#9F8170"
      }
    },
    {
      "type": "Feature",
      "geometry": {
        "type": "Point",
        "coordinates": [
          -88.043098,
          30.694201
        ]
      },
      "properties": {
        "Name": "Chris Lewis",
        "Height": "5' 7''",
        "Weight": "170 lbs",
        "Birthplace": "Mobile, AL",
        "marker-symbol": "america-football",
        "marker-color": "#9F8170"
      }
    },
    {
      "type": "Feature",
      "geometry": {
        "type": "Point",
        "coordinates": [
          -80.058296,
          26.775
        ]
      },
      "properties": {
        "Name": "Tommylee Lewis",
        "Height": "5' 7''",
        "Weight": "155 lbs",
        "Birthplace": "Riviera Beach, FL",
        "marker-symbol": "america-football",
        "marker-color": "#9F8170"
      }
    },
    {
      "type": "Feature",
      "geometry": {
        "type": "Point",
        "coordinates": [
          -122.838898,
          45.356701
        ]
      },
      "properties": {
        "Name": "Steven Long",
        "Height": "5' 7''",
        "Weight": "175 lbs",
        "Birthplace": "Sherwood, OR",
        "marker-symbol": "america-football",
        "marker-color": "#9F8170"
      }
    },
    {
      "type": "Feature",
      "geometry": {
        "type": "Point",
        "coordinates": [
          -92.6661,
          33.2075
        ]
      },
      "properties": {
        "Name": "Cameron Mahone",
        "Height": "5' 7''",
        "Weight": "190 lbs",
        "Birthplace": "El Dorado, AR",
        "marker-symbol": "america-football",
        "marker-color": "#9F8170"
      }
    },
    {
      "type": "Feature",
      "geometry": {
        "type": "Point",
        "coordinates": [
          -86.608902,
          33.619701
        ]
      },
      "properties": {
        "Name": "Brian Mann",
        "Height": "5' 7''",
        "Weight": "190 lbs",
        "Birthplace": "Trussville, AL",
        "marker-symbol": "america-football",
        "marker-color": "#9F8170"
      }
    },
    {
      "type": "Feature",
      "geometry": {
        "type": "Point",
        "coordinates": [
          -118.1436,
          34.1478
        ]
      },
      "properties": {
        "Name": "Malcolm Marable",
        "Height": "5' 7''",
        "Weight": "172 lbs",
        "Birthplace": "Pasadena, CA",
        "marker-symbol": "america-football",
        "marker-color": "#9F8170"
      }
    },
    {
      "type": "Feature",
      "geometry": {
        "type": "Point",
        "coordinates": [
          -106.486397,
          31.7586
        ]
      },
      "properties": {
        "Name": "Jacob Martinez",
        "Height": "5' 7''",
        "Weight": "200 lbs",
        "Birthplace": "El Paso, TX",
        "marker-symbol": "america-football",
        "marker-color": "#9F8170"
      }
    },
    {
      "type": "Feature",
      "geometry": {
        "type": "Point",
        "coordinates": [
          -75.978302,
          36.852798
        ]
      },
      "properties": {
        "Name": "Nick Mayers",
        "Height": "5' 7''",
        "Weight": "175 lbs",
        "Birthplace": "Virginia Beach, VA",
        "marker-symbol": "america-football",
        "marker-color": "#9F8170"
      }
    },
    {
      "type": "Feature",
      "geometry": {
        "type": "Point",
        "coordinates": [
          -119.176102,
          34.197498
        ]
      },
      "properties": {
        "Name": "Sam McCowan",
        "Height": "5' 7''",
        "Weight": "170 lbs",
        "Birthplace": "Oxnard, CA",
        "marker-symbol": "america-football",
        "marker-color": "#9F8170"
      }
    },
    {
      "type": "Feature",
      "geometry": {
        "type": "Point",
        "coordinates": [
          -84.987801,
          32.4608
        ]
      },
      "properties": {
        "Name": "Darren McCray",
        "Height": "5' 7''",
        "Weight": "150 lbs",
        "Birthplace": "Columbus, GA",
        "marker-symbol": "america-football",
        "marker-color": "#9F8170"
      }
    },
    {
      "type": "Feature",
      "geometry": {
        "type": "Point",
        "coordinates": [
          -80.065804,
          40.465599
        ]
      },
      "properties": {
        "Name": "Nick McCune",
        "Height": "5' 7''",
        "Weight": "177 lbs",
        "Birthplace": "Mckees Rocks, PA",
        "marker-symbol": "america-football",
        "marker-color": "#9F8170"
      }
    },
    {
      "type": "Feature",
      "geometry": {
        "type": "Point",
        "coordinates": [
          -86.911903,
          33.485802
        ]
      },
      "properties": {
        "Name": "Earvin McKenzie",
        "Height": "5' 7''",
        "Weight": "170 lbs",
        "Birthplace": "Fairfield, AL",
        "marker-symbol": "america-football",
        "marker-color": "#9F8170"
      }
    },
    {
      "type": "Feature",
      "geometry": {
        "type": "Point",
        "coordinates": [
          -112.444702,
          42.871399
        ]
      },
      "properties": {
        "Name": "Griff McNabb",
        "Height": "5' 7''",
        "Weight": "165 lbs",
        "Birthplace": "Pocatello, ID",
        "marker-symbol": "america-football",
        "marker-color": "#9F8170"
      }
    },
    {
      "type": "Feature",
      "geometry": {
        "type": "Point",
        "coordinates": [
          -122.433296,
          47.104198
        ]
      },
      "properties": {
        "Name": "Anthony Meray",
        "Height": "5' 7''",
        "Weight": "191 lbs",
        "Birthplace": "Spanaway, WA",
        "marker-symbol": "america-football",
        "marker-color": "#9F8170"
      }
    },
    {
      "type": "Feature",
      "geometry": {
        "type": "Point",
        "coordinates": [
          -118.242798,
          34.0522
        ]
      },
      "properties": {
        "Name": "Sam Miller",
        "Height": "5' 7''",
        "Weight": "162 lbs",
        "Birthplace": "Los Angeles, CA",
        "marker-symbol": "america-football",
        "marker-color": "#9F8170"
      }
    },
    {
      "type": "Feature",
      "geometry": {
        "type": "Point",
        "coordinates": [
          -115.780602,
          47.996101
        ]
      },
      "properties": {
        "Name": "Adam Moore",
        "Height": "5' 7''",
        "Weight": "188 lbs",
        "Birthplace": "Noxon, MT",
        "marker-symbol": "america-football",
        "marker-color": "#9F8170"
      }
    },
    {
      "type": "Feature",
      "geometry": {
        "type": "Point",
        "coordinates": [
          -96.164703,
          32.721901
        ]
      },
      "properties": {
        "Name": "Trey Morse",
        "Height": "5' 7''",
        "Weight": "193 lbs",
        "Birthplace": "Elmo, TX",
        "marker-symbol": "america-football",
        "marker-color": "#9F8170"
      }
    },
    {
      "type": "Feature",
      "geometry": {
        "type": "Point",
        "coordinates": [
          -73.997803,
          41.926899
        ]
      },
      "properties": {
        "Name": "Javaris Murray",
        "Height": "5' 7''",
        "Weight": "180 lbs",
        "Birthplace": "Kingston",
        "marker-symbol": "america-football",
        "marker-color": "#9F8170"
      }
    },
    {
      "type": "Feature",
      "geometry": {
        "type": "Point",
        "coordinates": [
          -74.144203,
          41.0886
        ]
      },
      "properties": {
        "Name": "Patrick Murray",
        "Height": "5' 7''",
        "Weight": "160 lbs",
        "Birthplace": "Mahwah, NJ",
        "marker-symbol": "america-football",
        "marker-color": "#9F8170"
      }
    },
    {
      "type": "Feature",
      "geometry": {
        "type": "Point",
        "coordinates": [
          -80.132202,
          26.1719
        ]
      },
      "properties": {
        "Name": "Bruce Natson",
        "Height": "5' 7''",
        "Weight": "145 lbs",
        "Birthplace": "Oakland Park, FL",
        "marker-symbol": "america-football",
        "marker-color": "#9F8170"
      }
    },
    {
      "type": "Feature",
      "geometry": {
        "type": "Point",
        "coordinates": [
          -95.9375,
          41.258598
        ]
      },
      "properties": {
        "Name": "Jordan Nelson",
        "Height": "5' 7''",
        "Weight": "180 lbs",
        "Birthplace": "Omaha, NE",
        "marker-symbol": "america-football",
        "marker-color": "#9F8170"
      }
    },
    {
      "type": "Feature",
      "geometry": {
        "type": "Point",
        "coordinates": [
          -81.035004,
          34.000599
        ]
      },
      "properties": {
        "Name": "Paul Nelson",
        "Height": "5' 7''",
        "Weight": "150 lbs",
        "Birthplace": "Columbia, SC",
        "marker-symbol": "america-football",
        "marker-color": "#9F8170"
      }
    },